header: 
  seq: 39700
  stamp: 
    secs: 1626107048
    nsecs: 775897965
  frame_id: ''
state: 
  voltage_input: 11.6
  temperature_pcb: 0.0
  current_motor: 0.0
  current_input: 0.0
  current_q: 0.0
  speed: 1.0
  duty_cycle: 0.0
  charge_drawn: 33.0
  charge_regen: 0.0
  energy_drawn: 0.0
  energy_regen: 0.0
  displacement: 1251.0
  distance_traveled: 4355.0
  fault_code: 0
---
header: 
  seq: 39701
  stamp: 
    secs: 1626107048
    nsecs: 795914159
  frame_id: ''
state: 
  voltage_input: 11.5
  temperature_pcb: 0.0
  current_motor: 0.0
  current_input: 0.0
  current_q: 0.0
  speed: 1.0
  duty_cycle: 0.0
  charge_drawn: 33.0
  charge_regen: 0.0
  energy_drawn: 0.0
  energy_regen: 0.0
  displacement: 1251.0
  distance_traveled: 4355.0
  fault_code: 0
---
header: 
  seq: 39702
  stamp: 
    secs: 1626107048
    nsecs: 815973897
  frame_id: ''
state: 
  voltage_input: 11.6
  temperature_pcb: 0.0
  current_motor: 0.0
  current_input: 0.0
  current_q: 0.0
  speed: 1.0
  duty_cycle: 0.0
  charge_drawn: 33.0
  charge_regen: 0.0
  energy_drawn: 0.0
  energy_regen: 0.0
  displacement: 1251.0
  distance_traveled: 4355.0
  fault_code: 0
---
header: 
  seq: 39703
  stamp: 
    secs: 1626107048
    nsecs: 835849357
  frame_id: ''
state: 
  voltage_input: 11.4
  temperature_pcb: 0.0
  current_motor: 0.0
  current_input: 0.0
  current_q: 0.0
  speed: 2.0
  duty_cycle: 0.0
  charge_drawn: 33.0
  charge_regen: 0.0
  energy_drawn: 0.0
  energy_regen: 0.0
  displacement: 1251.0
  distance_traveled: 4355.0
  fault_code: 0
---
header: 
  seq: 39704
  stamp: 
    secs: 1626107048
    nsecs: 856020400
  frame_id: ''
state: 
  voltage_input: 11.5
  temperature_pcb: 0.0
  current_motor: 0.0
  current_input: 0.0
  current_q: 0.0
  speed: 2.0
  duty_cycle: 0.0
  charge_drawn: 33.0
  charge_regen: 0.0
  energy_drawn: 0.0
  energy_regen: 0.0
  displacement: 1251.0
  distance_traveled: 4355.0
  fault_code: 0
---
header: 
  seq: 39705
  stamp: 
    secs: 1626107048
    nsecs: 875915966
  frame_id: ''
state: 
  voltage_input: 11.6
  temperature_pcb: 0.0
  current_motor: 0.0
  current_input: 0.0
  current_q: 0.0
  speed: 2.0
  duty_cycle: 0.0
  charge_drawn: 33.0
  charge_regen: 0.0
  energy_drawn: 0.0
  energy_regen: 0.0
  displacement: 1251.0
  distance_traveled: 4355.0
  fault_code: 0
---
header: 
  seq: 39706
  stamp: 
    secs: 1626107048
    nsecs: 895894450
  frame_id: ''
state: 
  voltage_input: 11.5
  temperature_pcb: 0.0
  current_motor: 0.0
  current_input: 0.0
  current_q: 0.0
  speed: 1.0
  duty_cycle: 0.0
  charge_drawn: 33.0
  charge_regen: 0.0
  energy_drawn: 0.0
  energy_regen: 0.0
  displacement: 1251.0
  distance_traveled: 4355.0
  fault_code: 0
---
header: 
  seq: 39707
  stamp: 
    secs: 1626107048
    nsecs: 915955125
  frame_id: ''
state: 
  voltage_input: 11.5
  temperature_pcb: 0.0
  current_motor: 0.0
  current_input: 0.0
  current_q: 0.0
  speed: 1.0
  duty_cycle: 0.0
  charge_drawn: 33.0
  charge_regen: 0.0
  energy_drawn: 0.0
  energy_regen: 0.0
  displacement: 1251.0
  distance_traveled: 4355.0
  fault_code: 0
---
header: 
  seq: 39708
  stamp: 
    secs: 1626107048
    nsecs: 935942308
  frame_id: ''
state: 
  voltage_input: 11.5
  temperature_pcb: 0.0
  current_motor: 0.0
  current_input: 0.0
  current_q: 0.0
  speed: 2.0
  duty_cycle: 0.0
  charge_drawn: 33.0
  charge_regen: 0.0
  energy_drawn: 0.0
  energy_regen: 0.0
  displacement: 1251.0
  distance_traveled: 4355.0
  fault_code: 0
---
header: 
  seq: 39709
  stamp: 
    secs: 1626107048
    nsecs: 956030432
  frame_id: ''
state: 
  voltage_input: 11.5
  temperature_pcb: 0.0
  current_motor: 0.0
  current_input: 0.0
  current_q: 0.0
  speed: 2.0
  duty_cycle: 0.0
  charge_drawn: 33.0
  charge_regen: 0.0
  energy_drawn: 0.0
  energy_regen: 0.0
  displacement: 1251.0
  distance_traveled: 4355.0
  fault_code: 0
---
header: 
  seq: 39710
  stamp: 
    secs: 1626107048
    nsecs: 976023501
  frame_id: ''
state: 
  voltage_input: 11.5
  temperature_pcb: 0.0
  current_motor: 0.0
  current_input: 0.0
  current_q: 0.0
  speed: 1.0
  duty_cycle: 0.0
  charge_drawn: 33.0
  charge_regen: 0.0
  energy_drawn: 0.0
  energy_regen: 0.0
  displacement: 1251.0
  distance_traveled: 4355.0
  fault_code: 0
---
header: 
  seq: 39711
  stamp: 
    secs: 1626107048
    nsecs: 995931931
  frame_id: ''
state: 
  voltage_input: 11.5
  temperature_pcb: 0.0
  current_motor: 0.0
  current_input: 0.0
  current_q: 0.0
  speed: 0.0
  duty_cycle: 0.0
  charge_drawn: 33.0
  charge_regen: 0.0
  energy_drawn: 0.0
  energy_regen: 0.0
  displacement: 1251.0
  distance_traveled: 4355.0
  fault_code: 0
---
header: 
  seq: 39712
  stamp: 
    secs: 1626107049
    nsecs:  16149643
  frame_id: ''
state: 
  voltage_input: 11.5
  temperature_pcb: 0.0
  current_motor: 0.0
  current_input: 0.0
  current_q: 0.0
  speed: 0.0
  duty_cycle: 0.0
  charge_drawn: 33.0
  charge_regen: 0.0
  energy_drawn: 0.0
  energy_regen: 0.0
  displacement: 1251.0
  distance_traveled: 4355.0
  fault_code: 0
---
header: 
  seq: 39713
  stamp: 
    secs: 1626107049
    nsecs:  35953747
  frame_id: ''
state: 
  voltage_input: 11.6
  temperature_pcb: 0.0
  current_motor: 0.0
  current_input: 0.0
  current_q: 0.0
  speed: 0.0
  duty_cycle: 0.0
  charge_drawn: 33.0
  charge_regen: 0.0
  energy_drawn: 0.0
  energy_regen: 0.0
  displacement: 1251.0
  distance_traveled: 4355.0
  fault_code: 0
---
header: 
  seq: 39714
  stamp: 
    secs: 1626107049
    nsecs:  55946867
  frame_id: ''
state: 
  voltage_input: 11.4
  temperature_pcb: 0.0
  current_motor: 0.0
  current_input: 0.0
  current_q: 0.0
  speed: 0.0
  duty_cycle: 0.0
  charge_drawn: 33.0
  charge_regen: 0.0
  energy_drawn: 0.0
  energy_regen: 0.0
  displacement: 1251.0
  distance_traveled: 4355.0
  fault_code: 0
---
header: 
  seq: 39715
  stamp: 
    secs: 1626107049
    nsecs:  76016345
  frame_id: ''
state: 
  voltage_input: 11.6
  temperature_pcb: 0.0
  current_motor: 0.0
  current_input: 0.0
  current_q: 0.0
  speed: 0.0
  duty_cycle: 0.0
  charge_drawn: 33.0
  charge_regen: 0.0
  energy_drawn: 0.0
  energy_regen: 0.0
  displacement: 1251.0
  distance_traveled: 4355.0
  fault_code: 0
---
header: 
  seq: 39716
  stamp: 
    secs: 1626107049
    nsecs:  95934619
  frame_id: ''
state: 
  voltage_input: 11.6
  temperature_pcb: 0.0
  current_motor: 0.0
  current_input: 0.0
  current_q: 0.0
  speed: 0.0
  duty_cycle: 0.0
  charge_drawn: 33.0
  charge_regen: 0.0
  energy_drawn: 0.0
  energy_regen: 0.0
  displacement: 1251.0
  distance_traveled: 4355.0
  fault_code: 0
---
header: 
  seq: 39717
  stamp: 
    secs: 1626107049
    nsecs: 116009514
  frame_id: ''
state: 
  voltage_input: 11.5
  temperature_pcb: 0.0
  current_motor: 0.0
  current_input: 0.0
  current_q: 0.0
  speed: -1.0
  duty_cycle: 0.0
  charge_drawn: 33.0
  charge_regen: 0.0
  energy_drawn: 0.0
  energy_regen: 0.0
  displacement: 1251.0
  distance_traveled: 4355.0
  fault_code: 0
---
header: 
  seq: 39718
  stamp: 
    secs: 1626107049
    nsecs: 135851692
  frame_id: ''
state: 
  voltage_input: 11.6
  temperature_pcb: 0.0
  current_motor: 0.0
  current_input: 0.0
  current_q: 0.0
  speed: -1.0
  duty_cycle: 0.0
  charge_drawn: 33.0
  charge_regen: 0.0
  energy_drawn: 0.0
  energy_regen: 0.0
  displacement: 1251.0
  distance_traveled: 4355.0
  fault_code: 0
---
header: 
  seq: 39719
  stamp: 
    secs: 1626107049
    nsecs: 156242638
  frame_id: ''
state: 
  voltage_input: 11.5
  temperature_pcb: 0.0
  current_motor: 0.0
  current_input: 0.0
  current_q: 0.0
  speed: 0.0
  duty_cycle: 0.0
  charge_drawn: 33.0
  charge_regen: 0.0
  energy_drawn: 0.0
  energy_regen: 0.0
  displacement: 1251.0
  distance_traveled: 4355.0
  fault_code: 0
---
header: 
  seq: 39720
  stamp: 
    secs: 1626107049
    nsecs: 175920800
  frame_id: ''
state: 
  voltage_input: 11.5
  temperature_pcb: 0.0
  current_motor: 0.0
  current_input: 0.0
  current_q: 0.0
  speed: -1.0
  duty_cycle: 0.0
  charge_drawn: 33.0
  charge_regen: 0.0
  energy_drawn: 0.0
  energy_regen: 0.0
  displacement: 1251.0
  distance_traveled: 4355.0
  fault_code: 0
---
header: 
  seq: 39721
  stamp: 
    secs: 1626107049
    nsecs: 195957256
  frame_id: ''
state: 
  voltage_input: 11.4
  temperature_pcb: 0.0
  current_motor: 0.0
  current_input: 0.0
  current_q: 0.0
  speed: 0.0
  duty_cycle: 0.0
  charge_drawn: 33.0
  charge_regen: 0.0
  energy_drawn: 0.0
  energy_regen: 0.0
  displacement: 1251.0
  distance_traveled: 4355.0
  fault_code: 0
---
header: 
  seq: 39722
  stamp: 
    secs: 1626107049
    nsecs: 215966992
  frame_id: ''
state: 
  voltage_input: 11.5
  temperature_pcb: 0.0
  current_motor: 0.0
  current_input: 0.0
  current_q: 0.0
  speed: -1.0
  duty_cycle: 0.0
  charge_drawn: 33.0
  charge_regen: 0.0
  energy_drawn: 0.0
  energy_regen: 0.0
  displacement: 1251.0
  distance_traveled: 4355.0
  fault_code: 0
---
header: 
  seq: 39723
  stamp: 
    secs: 1626107049
    nsecs: 235918288
  frame_id: ''
state: 
  voltage_input: 11.6
  temperature_pcb: 0.0
  current_motor: 0.0
  current_input: 0.0
  current_q: 0.0
  speed: -2.0
  duty_cycle: 0.0
  charge_drawn: 33.0
  charge_regen: 0.0
  energy_drawn: 0.0
  energy_regen: 0.0
  displacement: 1251.0
  distance_traveled: 4355.0
  fault_code: 0
---
header: 
  seq: 39724
  stamp: 
    secs: 1626107049
    nsecs: 255862501
  frame_id: ''
state: 
  voltage_input: 11.5
  temperature_pcb: 0.0
  current_motor: 0.0
  current_input: 0.0
  current_q: 0.0
  speed: -1.0
  duty_cycle: 0.0
  charge_drawn: 33.0
  charge_regen: 0.0
  energy_drawn: 0.0
  energy_regen: 0.0
  displacement: 1251.0
  distance_traveled: 4355.0
  fault_code: 0
---
header: 
  seq: 39725
  stamp: 
    secs: 1626107049
    nsecs: 275967084
  frame_id: ''
state: 
  voltage_input: 11.6
  temperature_pcb: 0.0
  current_motor: 0.0
  current_input: 0.0
  current_q: 0.0
  speed: -3.0
  duty_cycle: 0.0
  charge_drawn: 33.0
  charge_regen: 0.0
  energy_drawn: 0.0
  energy_regen: 0.0
  displacement: 1251.0
  distance_traveled: 4355.0
  fault_code: 0
---
header: 
  seq: 39726
  stamp: 
    secs: 1626107049
    nsecs: 296228338
  frame_id: ''
state: 
  voltage_input: 11.4
  temperature_pcb: 0.0
  current_motor: 0.0
  current_input: 0.0
  current_q: 0.0
  speed: -2.0
  duty_cycle: 0.0
  charge_drawn: 33.0
  charge_regen: 0.0
  energy_drawn: 0.0
  energy_regen: 0.0
  displacement: 1251.0
  distance_traveled: 4355.0
  fault_code: 0
---
header: 
  seq: 39727
  stamp: 
    secs: 1626107049
    nsecs: 315965930
  frame_id: ''
state: 
  voltage_input: 11.4
  temperature_pcb: 0.0
  current_motor: 0.0
  current_input: 0.0
  current_q: 0.0
  speed: -2.0
  duty_cycle: 0.0
  charge_drawn: 33.0
  charge_regen: 0.0
  energy_drawn: 0.0
  energy_regen: 0.0
  displacement: 1251.0
  distance_traveled: 4355.0
  fault_code: 0
---
header: 
  seq: 39728
  stamp: 
    secs: 1626107049
    nsecs: 335948685
  frame_id: ''
state: 
  voltage_input: 11.5
  temperature_pcb: 0.0
  current_motor: 0.0
  current_input: 0.0
  current_q: 0.0
  speed: -1.0
  duty_cycle: 0.0
  charge_drawn: 33.0
  charge_regen: 0.0
  energy_drawn: 0.0
  energy_regen: 0.0
  displacement: 1251.0
  distance_traveled: 4355.0
  fault_code: 0
---
header: 
  seq: 39729
  stamp: 
    secs: 1626107049
    nsecs: 355983734
  frame_id: ''
state: 
  voltage_input: 11.5
  temperature_pcb: 0.0
  current_motor: 0.0
  current_input: 0.0
  current_q: 0.0
  speed: 0.0
  duty_cycle: 0.0
  charge_drawn: 33.0
  charge_regen: 0.0
  energy_drawn: 0.0
  energy_regen: 0.0
  displacement: 1251.0
  distance_traveled: 4355.0
  fault_code: 0
---
header: 
  seq: 39730
  stamp: 
    secs: 1626107049
    nsecs: 375931333
  frame_id: ''
state: 
  voltage_input: 11.5
  temperature_pcb: 0.0
  current_motor: 0.0
  current_input: 0.0
  current_q: 0.0
  speed: 0.0
  duty_cycle: 0.0
  charge_drawn: 33.0
  charge_regen: 0.0
  energy_drawn: 0.0
  energy_regen: 0.0
  displacement: 1251.0
  distance_traveled: 4355.0
  fault_code: 0
---
header: 
  seq: 39731
  stamp: 
    secs: 1626107049
    nsecs: 397406274
  frame_id: ''
state: 
  voltage_input: 11.5
  temperature_pcb: 0.0
  current_motor: 0.0
  current_input: 0.0
  current_q: 0.0
  speed: 0.0
  duty_cycle: 0.0
  charge_drawn: 33.0
  charge_regen: 0.0
  energy_drawn: 0.0
  energy_regen: 0.0
  displacement: 1251.0
  distance_traveled: 4355.0
  fault_code: 0
---
header: 
  seq: 39732
  stamp: 
    secs: 1626107049
    nsecs: 415861791
  frame_id: ''
state: 
  voltage_input: 11.5
  temperature_pcb: 0.0
  current_motor: 0.0
  current_input: 0.0
  current_q: 0.0
  speed: 0.0
  duty_cycle: 0.0
  charge_drawn: 33.0
  charge_regen: 0.0
  energy_drawn: 0.0
  energy_regen: 0.0
  displacement: 1251.0
  distance_traveled: 4355.0
  fault_code: 0
---
header: 
  seq: 39733
  stamp: 
    secs: 1626107049
    nsecs: 436994273
  frame_id: ''
state: 
  voltage_input: 11.5
  temperature_pcb: 0.0
  current_motor: 0.0
  current_input: 0.0
  current_q: 0.0
  speed: 1.0
  duty_cycle: 0.0
  charge_drawn: 33.0
  charge_regen: 0.0
  energy_drawn: 0.0
  energy_regen: 0.0
  displacement: 1251.0
  distance_traveled: 4355.0
  fault_code: 0
---
header: 
  seq: 39734
  stamp: 
    secs: 1626107049
    nsecs: 456883380
  frame_id: ''
state: 
  voltage_input: 11.5
  temperature_pcb: 0.0
  current_motor: 0.0
  current_input: 0.0
  current_q: 0.0
  speed: 1.0
  duty_cycle: 0.0
  charge_drawn: 33.0
  charge_regen: 0.0
  energy_drawn: 0.0
  energy_regen: 0.0
  displacement: 1251.0
  distance_traveled: 4355.0
  fault_code: 0
---
header: 
  seq: 39735
  stamp: 
    secs: 1626107049
    nsecs: 477451572
  frame_id: ''
state: 
  voltage_input: 11.5
  temperature_pcb: 0.0
  current_motor: 0.0
  current_input: 0.0
  current_q: 0.0
  speed: 1.0
  duty_cycle: 0.0
  charge_drawn: 33.0
  charge_regen: 0.0
  energy_drawn: 0.0
  energy_regen: 0.0
  displacement: 1251.0
  distance_traveled: 4355.0
  fault_code: 0
---
header: 
  seq: 39736
  stamp: 
    secs: 1626107049
    nsecs: 495890317
  frame_id: ''
state: 
  voltage_input: 11.5
  temperature_pcb: 0.0
  current_motor: 0.0
  current_input: 0.0
  current_q: 0.0
  speed: 1.0
  duty_cycle: 0.0
  charge_drawn: 33.0
  charge_regen: 0.0
  energy_drawn: 0.0
  energy_regen: 0.0
  displacement: 1251.0
  distance_traveled: 4355.0
  fault_code: 0
---
header: 
  seq: 39737
  stamp: 
    secs: 1626107049
    nsecs: 516102925
  frame_id: ''
state: 
  voltage_input: 11.5
  temperature_pcb: 0.0
  current_motor: 0.0
  current_input: 0.0
  current_q: 0.0
  speed: 1.0
  duty_cycle: 0.0
  charge_drawn: 33.0
  charge_regen: 0.0
  energy_drawn: 0.0
  energy_regen: 0.0
  displacement: 1251.0
  distance_traveled: 4355.0
  fault_code: 0
---
header: 
  seq: 39738
  stamp: 
    secs: 1626107049
    nsecs: 535855673
  frame_id: ''
state: 
  voltage_input: 11.5
  temperature_pcb: 0.0
  current_motor: 0.0
  current_input: 0.0
  current_q: 0.0
  speed: 1.0
  duty_cycle: 0.0
  charge_drawn: 33.0
  charge_regen: 0.0
  energy_drawn: 0.0
  energy_regen: 0.0
  displacement: 1251.0
  distance_traveled: 4355.0
  fault_code: 0
---
header: 
  seq: 39739
  stamp: 
    secs: 1626107049
    nsecs: 555871398
  frame_id: ''
state: 
  voltage_input: 11.6
  temperature_pcb: 0.0
  current_motor: 0.0
  current_input: 0.0
  current_q: 0.0
  speed: 1.0
  duty_cycle: 0.0
  charge_drawn: 33.0
  charge_regen: 0.0
  energy_drawn: 0.0
  energy_regen: 0.0
  displacement: 1251.0
  distance_traveled: 4355.0
  fault_code: 0
---
header: 
  seq: 39740
  stamp: 
    secs: 1626107049
    nsecs: 576497457
  frame_id: ''
state: 
  voltage_input: 11.6
  temperature_pcb: 0.0
  current_motor: 0.0
  current_input: 0.0
  current_q: 0.0
  speed: 2.0
  duty_cycle: -0.001
  charge_drawn: 33.0
  charge_regen: 0.0
  energy_drawn: 0.0
  energy_regen: 0.0
  displacement: 1251.0
  distance_traveled: 4355.0
  fault_code: 0
---
header: 
  seq: 39741
  stamp: 
    secs: 1626107049
    nsecs: 597784736
  frame_id: ''
state: 
  voltage_input: 11.4
  temperature_pcb: 0.0
  current_motor: 0.0
  current_input: 0.0
  current_q: 0.0
  speed: 3.0
  duty_cycle: 0.0
  charge_drawn: 33.0
  charge_regen: 0.0
  energy_drawn: 0.0
  energy_regen: 0.0
  displacement: 1251.0
  distance_traveled: 4355.0
  fault_code: 0
---
header: 
  seq: 39742
  stamp: 
    secs: 1626107049
    nsecs: 619064566
  frame_id: ''
state: 
  voltage_input: 11.6
  temperature_pcb: 0.0
  current_motor: 0.0
  current_input: 0.0
  current_q: 0.0
  speed: 2.0
  duty_cycle: 0.0
  charge_drawn: 33.0
  charge_regen: 0.0
  energy_drawn: 0.0
  energy_regen: 0.0
  displacement: 1251.0
  distance_traveled: 4355.0
  fault_code: 0
---
header: 
  seq: 39743
  stamp: 
    secs: 1626107049
    nsecs: 636038887
  frame_id: ''
state: 
  voltage_input: 11.4
  temperature_pcb: 0.0
  current_motor: 0.0
  current_input: 0.0
  current_q: 0.0
  speed: 2.0
  duty_cycle: 0.0
  charge_drawn: 33.0
  charge_regen: 0.0
  energy_drawn: 0.0
  energy_regen: 0.0
  displacement: 1251.0
  distance_traveled: 4355.0
  fault_code: 0
---
header: 
  seq: 39744
  stamp: 
    secs: 1626107049
    nsecs: 656044144
  frame_id: ''
state: 
  voltage_input: 11.5
  temperature_pcb: 0.0
  current_motor: 0.0
  current_input: 0.0
  current_q: 0.0
  speed: 0.0
  duty_cycle: 0.0
  charge_drawn: 33.0
  charge_regen: 0.0
  energy_drawn: 0.0
  energy_regen: 0.0
  displacement: 1251.0
  distance_traveled: 4355.0
  fault_code: 0
---
header: 
  seq: 39745
  stamp: 
    secs: 1626107049
    nsecs: 676686089
  frame_id: ''
state: 
  voltage_input: 11.5
  temperature_pcb: 0.0
  current_motor: 0.0
  current_input: 0.0
  current_q: 0.0
  speed: 0.0
  duty_cycle: 0.0
  charge_drawn: 33.0
  charge_regen: 0.0
  energy_drawn: 0.0
  energy_regen: 0.0
  displacement: 1251.0
  distance_traveled: 4355.0
  fault_code: 0
---
header: 
  seq: 39746
  stamp: 
    secs: 1626107049
    nsecs: 696479515
  frame_id: ''
state: 
  voltage_input: 11.5
  temperature_pcb: 0.0
  current_motor: 0.0
  current_input: 0.0
  current_q: 0.0
  speed: -1.0
  duty_cycle: 0.0
  charge_drawn: 33.0
  charge_regen: 0.0
  energy_drawn: 0.0
  energy_regen: 0.0
  displacement: 1251.0
  distance_traveled: 4355.0
  fault_code: 0
---
header: 
  seq: 39747
  stamp: 
    secs: 1626107049
    nsecs: 717528661
  frame_id: ''
state: 
  voltage_input: 11.6
  temperature_pcb: 0.0
  current_motor: 0.0
  current_input: 0.0
  current_q: 0.0
  speed: -1.0
  duty_cycle: 0.0
  charge_drawn: 33.0
  charge_regen: 0.0
  energy_drawn: 0.0
  energy_regen: 0.0
  displacement: 1251.0
  distance_traveled: 4355.0
  fault_code: 0
---
header: 
  seq: 39748
  stamp: 
    secs: 1626107049
    nsecs: 737758352
  frame_id: ''
state: 
  voltage_input: 11.5
  temperature_pcb: 0.0
  current_motor: 0.0
  current_input: 0.0
  current_q: 0.0
  speed: 0.0
  duty_cycle: 0.0
  charge_drawn: 33.0
  charge_regen: 0.0
  energy_drawn: 0.0
  energy_regen: 0.0
  displacement: 1251.0
  distance_traveled: 4355.0
  fault_code: 0
---
header: 
  seq: 39749
  stamp: 
    secs: 1626107049
    nsecs: 756059541
  frame_id: ''
state: 
  voltage_input: 11.6
  temperature_pcb: 0.0
  current_motor: 0.0
  current_input: 0.0
  current_q: 0.0
  speed: 0.0
  duty_cycle: 0.0
  charge_drawn: 33.0
  charge_regen: 0.0
  energy_drawn: 0.0
  energy_regen: 0.0
  displacement: 1251.0
  distance_traveled: 4355.0
  fault_code: 0
---
header: 
  seq: 39750
  stamp: 
    secs: 1626107049
    nsecs: 776505437
  frame_id: ''
state: 
  voltage_input: 11.6
  temperature_pcb: 0.0
  current_motor: 26.56
  current_input: 1.88
  current_q: 28.29
  speed: 65.0
  duty_cycle: 0.102
  charge_drawn: 33.0
  charge_regen: 0.0
  energy_drawn: 0.0
  energy_regen: 0.0
  displacement: 1251.0
  distance_traveled: 4355.0
  fault_code: 0
---
header: 
  seq: 39751
  stamp: 
    secs: 1626107049
    nsecs: 796960604
  frame_id: ''
state: 
  voltage_input: 11.4
  temperature_pcb: 0.0
  current_motor: 33.91
  current_input: 2.8
  current_q: 33.98
  speed: 594.0
  duty_cycle: 0.092
  charge_drawn: 33.0
  charge_regen: 0.0
  energy_drawn: 0.0
  energy_regen: 0.0
  displacement: 1256.0
  distance_traveled: 4360.0
  fault_code: 0
---
header: 
  seq: 39752
  stamp: 
    secs: 1626107049
    nsecs: 817046020
  frame_id: ''
state: 
  voltage_input: 11.5
  temperature_pcb: 0.0
  current_motor: 61.02
  current_input: 4.76
  current_q: 61.05
  speed: 693.0
  duty_cycle: 0.077
  charge_drawn: 33.0
  charge_regen: 0.0
  energy_drawn: 0.0
  energy_regen: 0.0
  displacement: 1258.0
  distance_traveled: 4362.0
  fault_code: 0
---
header: 
  seq: 39753
  stamp: 
    secs: 1626107049
    nsecs: 837049401
  frame_id: ''
state: 
  voltage_input: 11.6
  temperature_pcb: 0.0
  current_motor: 59.44
  current_input: 4.53
  current_q: 59.42
  speed: 776.0
  duty_cycle: 0.087
  charge_drawn: 34.0
  charge_regen: 0.0
  energy_drawn: 0.0
  energy_regen: 0.0
  displacement: 1260.0
  distance_traveled: 4364.0
  fault_code: 0
---
header: 
  seq: 39754
  stamp: 
    secs: 1626107049
    nsecs: 856536411
  frame_id: ''
state: 
  voltage_input: 11.6
  temperature_pcb: 0.0
  current_motor: 30.37
  current_input: 1.86
  current_q: 23.58
  speed: 390.0
  duty_cycle: 0.066
  charge_drawn: 34.0
  charge_regen: 0.0
  energy_drawn: 0.0
  energy_regen: 0.0
  displacement: 1258.0
  distance_traveled: 4368.0
  fault_code: 0
---
header: 
  seq: 39755
  stamp: 
    secs: 1626107049
    nsecs: 877047466
  frame_id: ''
state: 
  voltage_input: 11.5
  temperature_pcb: 0.0
  current_motor: 16.95
  current_input: 0.82
  current_q: 4.82
  speed: 711.0
  duty_cycle: 0.061
  charge_drawn: 34.0
  charge_regen: 0.0
  energy_drawn: 0.0
  energy_regen: 0.0
  displacement: 1261.0
  distance_traveled: 4371.0
  fault_code: 0
---
header: 
  seq: 39756
  stamp: 
    secs: 1626107049
    nsecs: 896889644
  frame_id: ''
state: 
  voltage_input: 11.6
  temperature_pcb: 0.0
  current_motor: 32.17
  current_input: 1.92
  current_q: 32.04
  speed: 870.0
  duty_cycle: 0.064
  charge_drawn: 34.0
  charge_regen: 0.0
  energy_drawn: 0.0
  energy_regen: 0.0
  displacement: 1264.0
  distance_traveled: 4374.0
  fault_code: 0
---
header: 
  seq: 39757
  stamp: 
    secs: 1626107049
    nsecs: 917270434
  frame_id: ''
state: 
  voltage_input: 11.6
  temperature_pcb: 0.0
  current_motor: 30.12
  current_input: 1.7
  current_q: 30.17
  speed: 961.0
  duty_cycle: 0.054
  charge_drawn: 34.0
  charge_regen: 0.0
  energy_drawn: 0.0
  energy_regen: 0.0
  displacement: 1266.0
  distance_traveled: 4376.0
  fault_code: 0
---
header: 
  seq: 39758
  stamp: 
    secs: 1626107049
    nsecs: 936672597
  frame_id: ''
state: 
  voltage_input: 11.5
  temperature_pcb: 0.0
  current_motor: 38.37
  current_input: 2.66
  current_q: 39.14
  speed: 1086.0
  duty_cycle: 0.119
  charge_drawn: 34.0
  charge_regen: 0.0
  energy_drawn: 0.0
  energy_regen: 0.0
  displacement: 1269.0
  distance_traveled: 4379.0
  fault_code: 0
---
header: 
  seq: 39759
  stamp: 
    secs: 1626107049
    nsecs: 956663426
  frame_id: ''
state: 
  voltage_input: 11.5
  temperature_pcb: 0.0
  current_motor: 55.95
  current_input: 4.95
  current_q: 56.2
  speed: 1339.0
  duty_cycle: 0.105
  charge_drawn: 34.0
  charge_regen: 0.0
  energy_drawn: 0.0
  energy_regen: 0.0
  displacement: 1274.0
  distance_traveled: 4384.0
  fault_code: 0
---
header: 
  seq: 39760
  stamp: 
    secs: 1626107049
    nsecs: 977117448
  frame_id: ''
state: 
  voltage_input: 11.5
  temperature_pcb: 0.0
  current_motor: 60.26
  current_input: 5.44
  current_q: 60.19
  speed: 1509.0
  duty_cycle: 0.104
  charge_drawn: 35.0
  charge_regen: 0.0
  energy_drawn: 0.0
  energy_regen: 0.0
  displacement: 1278.0
  distance_traveled: 4388.0
  fault_code: 0
---
header: 
  seq: 39761
  stamp: 
    secs: 1626107049
    nsecs: 997373442
  frame_id: ''
state: 
  voltage_input: 11.6
  temperature_pcb: 0.0
  current_motor: 59.67
  current_input: 5.59
  current_q: 59.48
  speed: 1719.0
  duty_cycle: 0.114
  charge_drawn: 35.0
  charge_regen: 0.0
  energy_drawn: 0.0
  energy_regen: 0.0
  displacement: 1282.0
  distance_traveled: 4392.0
  fault_code: 0
---
header: 
  seq: 39762
  stamp: 
    secs: 1626107050
    nsecs:  18288990
  frame_id: ''
state: 
  voltage_input: 11.6
  temperature_pcb: 0.0
  current_motor: 59.01
  current_input: 5.77
  current_q: 59.07
  speed: 1964.0
  duty_cycle: 0.111
  charge_drawn: 35.0
  charge_regen: 0.0
  energy_drawn: 0.0
  energy_regen: 0.0
  displacement: 1288.0
  distance_traveled: 4398.0
  fault_code: 0
---
header: 
  seq: 39763
  stamp: 
    secs: 1626107050
    nsecs:  36133028
  frame_id: ''
state: 
  voltage_input: 11.5
  temperature_pcb: 0.0
  current_motor: 56.18
  current_input: 5.43
  current_q: 55.82
  speed: 2174.0
  duty_cycle: 0.108
  charge_drawn: 36.0
  charge_regen: 0.0
  energy_drawn: 0.0
  energy_regen: 0.0
  displacement: 1293.0
  distance_traveled: 4403.0
  fault_code: 0
---
header: 
  seq: 39764
  stamp: 
    secs: 1626107050
    nsecs:  57201705
  frame_id: ''
state: 
  voltage_input: 11.6
  temperature_pcb: 0.0
  current_motor: 51.15
  current_input: 4.83
  current_q: 50.84
  speed: 2396.0
  duty_cycle: 0.109
  charge_drawn: 36.0
  charge_regen: 0.0
  energy_drawn: 0.0
  energy_regen: 0.0
  displacement: 1299.0
  distance_traveled: 4409.0
  fault_code: 0
---
header: 
  seq: 39765
  stamp: 
    secs: 1626107050
    nsecs:  77375040
  frame_id: ''
state: 
  voltage_input: 11.5
  temperature_pcb: 0.0
  current_motor: 48.02
  current_input: 4.53
  current_q: 47.84
  speed: 2615.0
  duty_cycle: 0.1
  charge_drawn: 36.0
  charge_regen: 0.0
  energy_drawn: 0.0
  energy_regen: 0.0
  displacement: 1306.0
  distance_traveled: 4416.0
  fault_code: 0
---
header: 
  seq: 39766
  stamp: 
    secs: 1626107050
    nsecs:  97282117
  frame_id: ''
state: 
  voltage_input: 11.5
  temperature_pcb: 0.0
  current_motor: 43.42
  current_input: 3.99
  current_q: 43.28
  speed: 2805.0
  duty_cycle: 0.114
  charge_drawn: 36.0
  charge_regen: 0.0
  energy_drawn: 0.0
  energy_regen: 0.0
  displacement: 1312.0
  distance_traveled: 4422.0
  fault_code: 0
---
header: 
  seq: 39767
  stamp: 
    secs: 1626107050
    nsecs: 116967362
  frame_id: ''
state: 
  voltage_input: 11.6
  temperature_pcb: 0.0
  current_motor: 39.2
  current_input: 3.49
  current_q: 38.75
  speed: 3000.0
  duty_cycle: 0.098
  charge_drawn: 37.0
  charge_regen: 0.0
  energy_drawn: 0.0
  energy_regen: 0.0
  displacement: 1319.0
  distance_traveled: 4429.0
  fault_code: 0
---
header: 
  seq: 39768
  stamp: 
    secs: 1626107050
    nsecs: 137246013
  frame_id: ''
state: 
  voltage_input: 11.5
  temperature_pcb: 0.0
  current_motor: 36.22
  current_input: 3.29
  current_q: 36.37
  speed: 3179.0
  duty_cycle: 0.104
  charge_drawn: 37.0
  charge_regen: 0.0
  energy_drawn: 0.0
  energy_regen: 0.0
  displacement: 1327.0
  distance_traveled: 4437.0
  fault_code: 0
---
header: 
  seq: 39769
  stamp: 
    secs: 1626107050
    nsecs: 156691251
  frame_id: ''
state: 
  voltage_input: 11.5
  temperature_pcb: 0.0
  current_motor: 30.12
  current_input: 2.54
  current_q: 29.56
  speed: 3368.0
  duty_cycle: 0.097
  charge_drawn: 37.0
  charge_regen: 0.0
  energy_drawn: 0.0
  energy_regen: 0.0
  displacement: 1334.0
  distance_traveled: 4444.0
  fault_code: 0
---
header: 
  seq: 39770
  stamp: 
    secs: 1626107050
    nsecs: 177650654
  frame_id: ''
state: 
  voltage_input: 11.6
  temperature_pcb: 0.0
  current_motor: 26.12
  current_input: 2.01
  current_q: 17.71
  speed: 3432.0
  duty_cycle: -0.048
  charge_drawn: 37.0
  charge_regen: 0.0
  energy_drawn: 0.0
  energy_regen: 0.0
  displacement: 1342.0
  distance_traveled: 4452.0
  fault_code: 0
---
header: 
  seq: 39771
  stamp: 
    secs: 1626107050
    nsecs: 197396527
  frame_id: ''
state: 
  voltage_input: 11.6
  temperature_pcb: 0.0
  current_motor: 15.72
  current_input: 1.24
  current_q: 6.67
  speed: 3021.0
  duty_cycle: 0.084
  charge_drawn: 37.0
  charge_regen: 0.0
  energy_drawn: 0.0
  energy_regen: 0.0
  displacement: 1345.0
  distance_traveled: 4457.0
  fault_code: 0
---
header: 
  seq: 39772
  stamp: 
    secs: 1626107050
    nsecs: 216499670
  frame_id: ''
state: 
  voltage_input: 11.6
  temperature_pcb: 0.0
  current_motor: -2.14
  current_input: 0.29
  current_q: -4.2
  speed: 3079.0
  duty_cycle: 0.005
  charge_drawn: 37.0
  charge_regen: 0.0
  energy_drawn: 0.0
  energy_regen: 0.0
  displacement: 1352.0
  distance_traveled: 4464.0
  fault_code: 0
---
header: 
  seq: 39773
  stamp: 
    secs: 1626107050
    nsecs: 236675192
  frame_id: ''
state: 
  voltage_input: 11.5
  temperature_pcb: 0.0
  current_motor: -11.58
  current_input: -0.01
  current_q: -10.51
  speed: 3089.0
  duty_cycle: 0.045
  charge_drawn: 37.0
  charge_regen: 0.0
  energy_drawn: 0.0
  energy_regen: 0.0
  displacement: 1358.0
  distance_traveled: 4470.0
  fault_code: 0
---
header: 
  seq: 39774
  stamp: 
    secs: 1626107050
    nsecs: 257328387
  frame_id: ''
state: 
  voltage_input: 11.6
  temperature_pcb: 0.0
  current_motor: -9.83
  current_input: -0.03
  current_q: -18.81
  speed: 3100.0
  duty_cycle: 0.038
  charge_drawn: 37.0
  charge_regen: 0.0
  energy_drawn: 0.0
  energy_regen: 0.0
  displacement: 1364.0
  distance_traveled: 4476.0
  fault_code: 0
---
header: 
  seq: 39775
  stamp: 
    secs: 1626107050
    nsecs: 278059918
  frame_id: ''
state: 
  voltage_input: 11.5
  temperature_pcb: 0.0
  current_motor: 4.31
  current_input: 1.17
  current_q: 0.31
  speed: 3481.0
  duty_cycle: 0.061
  charge_drawn: 37.0
  charge_regen: 0.0
  energy_drawn: 0.0
  energy_regen: 0.0
  displacement: 1374.0
  distance_traveled: 4486.0
  fault_code: 0
---
header: 
  seq: 39776
  stamp: 
    secs: 1626107050
    nsecs: 297072902
  frame_id: ''
state: 
  voltage_input: 11.6
  temperature_pcb: 0.0
  current_motor: -1.8
  current_input: 0.65
  current_q: -1.12
  speed: 3762.0
  duty_cycle: 0.074
  charge_drawn: 37.0
  charge_regen: 0.0
  energy_drawn: 0.0
  energy_regen: 0.0
  displacement: 1382.0
  distance_traveled: 4494.0
  fault_code: 0
---
header: 
  seq: 39777
  stamp: 
    secs: 1626107050
    nsecs: 317269050
  frame_id: ''
state: 
  voltage_input: 11.6
  temperature_pcb: 0.0
  current_motor: 14.71
  current_input: 1.27
  current_q: 14.32
  speed: 3982.0
  duty_cycle: 0.046
  charge_drawn: 37.0
  charge_regen: 0.0
  energy_drawn: 0.0
  energy_regen: 0.0
  displacement: 1392.0
  distance_traveled: 4504.0
  fault_code: 0
---
header: 
  seq: 39778
  stamp: 
    secs: 1626107050
    nsecs: 336713819
  frame_id: ''
state: 
  voltage_input: 11.5
  temperature_pcb: 0.0
  current_motor: 25.08
  current_input: 2.57
  current_q: 26.68
  speed: 3927.0
  duty_cycle: 0.135
  charge_drawn: 37.0
  charge_regen: 0.0
  energy_drawn: 0.0
  energy_regen: 0.0
  displacement: 1399.0
  distance_traveled: 4511.0
  fault_code: 0
---
header: 
  seq: 39779
  stamp: 
    secs: 1626107050
    nsecs: 356726003
  frame_id: ''
state: 
  voltage_input: 11.5
  temperature_pcb: 0.0
  current_motor: 31.1
  current_input: 2.94
  current_q: 29.57
  speed: 4014.0
  duty_cycle: 0.064
  charge_drawn: 38.0
  charge_regen: 0.0
  energy_drawn: 0.0
  energy_regen: 0.0
  displacement: 1408.0
  distance_traveled: 4520.0
  fault_code: 0
---
header: 
  seq: 39780
  stamp: 
    secs: 1626107050
    nsecs: 377898903
  frame_id: ''
state: 
  voltage_input: 11.5
  temperature_pcb: 0.0
  current_motor: 26.07
  current_input: 2.56
  current_q: 27.15
  speed: 3922.0
  duty_cycle: 0.114
  charge_drawn: 38.0
  charge_regen: 0.0
  energy_drawn: 0.0
  energy_regen: 0.0
  displacement: 1415.0
  distance_traveled: 4527.0
  fault_code: 0
---
header: 
  seq: 39781
  stamp: 
    secs: 1626107050
    nsecs: 396687608
  frame_id: ''
state: 
  voltage_input: 11.4
  temperature_pcb: 0.0
  current_motor: 30.8
  current_input: 3.09
  current_q: 29.7
  speed: 4010.0
  duty_cycle: 0.103
  charge_drawn: 38.0
  charge_regen: 0.0
  energy_drawn: 0.0
  energy_regen: 0.0
  displacement: 1423.0
  distance_traveled: 4535.0
  fault_code: 0
---
header: 
  seq: 39782
  stamp: 
    secs: 1626107050
    nsecs: 417498517
  frame_id: ''
state: 
  voltage_input: 11.6
  temperature_pcb: 0.0
  current_motor: 20.77
  current_input: 1.98
  current_q: 21.08
  speed: 4010.0
  duty_cycle: 0.111
  charge_drawn: 38.0
  charge_regen: 0.0
  energy_drawn: 0.0
  energy_regen: 0.0
  displacement: 1431.0
  distance_traveled: 4543.0
  fault_code: 0
---
header: 
  seq: 39783
  stamp: 
    secs: 1626107050
    nsecs: 436392278
  frame_id: ''
state: 
  voltage_input: 11.5
  temperature_pcb: 0.0
  current_motor: 31.13
  current_input: 3.11
  current_q: 30.56
  speed: 4073.0
  duty_cycle: 0.101
  charge_drawn: 38.0
  charge_regen: 0.0
  energy_drawn: 0.0
  energy_regen: 0.0
  displacement: 1440.0
  distance_traveled: 4552.0
  fault_code: 0
---
header: 
  seq: 39784
  stamp: 
    secs: 1626107050
    nsecs: 456892603
  frame_id: ''
state: 
  voltage_input: 11.6
  temperature_pcb: 0.0
  current_motor: 20.74
  current_input: 1.94
  current_q: 20.67
  speed: 4081.0
  duty_cycle: 0.103
  charge_drawn: 38.0
  charge_regen: 0.0
  energy_drawn: 0.0
  energy_regen: 0.0
  displacement: 1448.0
  distance_traveled: 4560.0
  fault_code: 0
---
header: 
  seq: 39785
  stamp: 
    secs: 1626107050
    nsecs: 477521943
  frame_id: ''
state: 
  voltage_input: 11.5
  temperature_pcb: 0.0
  current_motor: 27.94
  current_input: 2.78
  current_q: 26.89
  speed: 4194.0
  duty_cycle: 0.07
  charge_drawn: 38.0
  charge_regen: 0.0
  energy_drawn: 0.0
  energy_regen: 0.0
  displacement: 1457.0
  distance_traveled: 4569.0
  fault_code: 0
---
header: 
  seq: 39786
  stamp: 
    secs: 1626107050
    nsecs: 496549927
  frame_id: ''
state: 
  voltage_input: 11.5
  temperature_pcb: 0.0
  current_motor: 18.35
  current_input: 1.93
  current_q: 19.38
  speed: 4175.0
  duty_cycle: 0.127
  charge_drawn: 39.0
  charge_regen: 0.0
  energy_drawn: 0.0
  energy_regen: 0.0
  displacement: 1465.0
  distance_traveled: 4577.0
  fault_code: 0
---
header: 
  seq: 39787
  stamp: 
    secs: 1626107050
    nsecs: 517639803
  frame_id: ''
state: 
  voltage_input: 11.5
  temperature_pcb: 0.0
  current_motor: 19.36
  current_input: 1.85
  current_q: 17.69
  speed: 4317.0
  duty_cycle: 0.054
  charge_drawn: 39.0
  charge_regen: 0.0
  energy_drawn: 0.0
  energy_regen: 0.0
  displacement: 1475.0
  distance_traveled: 4587.0
  fault_code: 0
---
header: 
  seq: 39788
  stamp: 
    secs: 1626107050
    nsecs: 536468145
  frame_id: ''
state: 
  voltage_input: 11.5
  temperature_pcb: 0.0
  current_motor: 20.42
  current_input: 2.13
  current_q: 21.34
  speed: 4350.0
  duty_cycle: 0.111
  charge_drawn: 39.0
  charge_regen: 0.0
  energy_drawn: 0.0
  energy_regen: 0.0
  displacement: 1484.0
  distance_traveled: 4596.0
  fault_code: 0
---
header: 
  seq: 39789
  stamp: 
    secs: 1626107050
    nsecs: 556355168
  frame_id: ''
state: 
  voltage_input: 11.6
  temperature_pcb: 0.0
  current_motor: 12.93
  current_input: 1.22
  current_q: 12.77
  speed: 4402.0
  duty_cycle: 0.098
  charge_drawn: 39.0
  charge_regen: 0.0
  energy_drawn: 0.0
  energy_regen: 0.0
  displacement: 1493.0
  distance_traveled: 4605.0
  fault_code: 0
---
header: 
  seq: 39790
  stamp: 
    secs: 1626107050
    nsecs: 576671998
  frame_id: ''
state: 
  voltage_input: 11.5
  temperature_pcb: 0.0
  current_motor: 20.77
  current_input: 1.93
  current_q: 19.66
  speed: 4503.0
  duty_cycle: 0.058
  charge_drawn: 39.0
  charge_regen: 0.0
  energy_drawn: 0.0
  energy_regen: 0.0
  displacement: 1502.0
  distance_traveled: 4614.0
  fault_code: 0
---
header: 
  seq: 39791
  stamp: 
    secs: 1626107050
    nsecs: 596666317
  frame_id: ''
state: 
  voltage_input: 11.5
  temperature_pcb: 0.0
  current_motor: 18.81
  current_input: 1.99
  current_q: 20.36
  speed: 4446.0
  duty_cycle: 0.129
  charge_drawn: 39.0
  charge_regen: 0.0
  energy_drawn: 0.0
  energy_regen: 0.0
  displacement: 1511.0
  distance_traveled: 4623.0
  fault_code: 0
---
header: 
  seq: 39792
  stamp: 
    secs: 1626107050
    nsecs: 620138408
  frame_id: ''
state: 
  voltage_input: 11.5
  temperature_pcb: 0.0
  current_motor: 17.86
  current_input: 1.66
  current_q: 16.03
  speed: 4523.0
  duty_cycle: 0.059
  charge_drawn: 39.0
  charge_regen: 0.0
  energy_drawn: 0.0
  energy_regen: 0.0
  displacement: 1520.0
  distance_traveled: 4632.0
  fault_code: 0
---
header: 
  seq: 39793
  stamp: 
    secs: 1626107050
    nsecs: 637914423
  frame_id: ''
state: 
  voltage_input: 11.5
  temperature_pcb: 0.0
  current_motor: 19.86
  current_input: 1.9
  current_q: 20.21
  speed: 4554.0
  duty_cycle: 0.091
  charge_drawn: 39.0
  charge_regen: 0.0
  energy_drawn: 0.0
  energy_regen: 0.0
  displacement: 1530.0
  distance_traveled: 4642.0
  fault_code: 0
---
header: 
  seq: 39794
  stamp: 
    secs: 1626107050
    nsecs: 656823653
  frame_id: ''
state: 
  voltage_input: 11.6
  temperature_pcb: 0.0
  current_motor: 12.41
  current_input: 1.18
  current_q: 12.69
  speed: 4565.0
  duty_cycle: 0.107
  charge_drawn: 39.0
  charge_regen: 0.0
  energy_drawn: 0.0
  energy_regen: 0.0
  displacement: 1539.0
  distance_traveled: 4651.0
  fault_code: 0
---
header: 
  seq: 39795
  stamp: 
    secs: 1626107050
    nsecs: 677538777
  frame_id: ''
state: 
  voltage_input: 11.5
  temperature_pcb: 0.0
  current_motor: 11.41
  current_input: 0.97
  current_q: 10.51
  speed: 4626.0
  duty_cycle: 0.095
  charge_drawn: 39.0
  charge_regen: 0.0
  energy_drawn: 0.0
  energy_regen: 0.0
  displacement: 1549.0
  distance_traveled: 4661.0
  fault_code: 0
---
header: 
  seq: 39796
  stamp: 
    secs: 1626107050
    nsecs: 696971306
  frame_id: ''
state: 
  voltage_input: 11.5
  temperature_pcb: 0.0
  current_motor: 13.42
  current_input: 1.21
  current_q: 12.75
  speed: 4705.0
  duty_cycle: 0.06
  charge_drawn: 39.0
  charge_regen: 0.0
  energy_drawn: 0.0
  energy_regen: 0.0
  displacement: 1559.0
  distance_traveled: 4671.0
  fault_code: 0
---
header: 
  seq: 39797
  stamp: 
    secs: 1626107050
    nsecs: 716687230
  frame_id: ''
state: 
  voltage_input: 11.5
  temperature_pcb: 0.0
  current_motor: 15.12
  current_input: 1.49
  current_q: 15.62
  speed: 4724.0
  duty_cycle: 0.087
  charge_drawn: 40.0
  charge_regen: 0.0
  energy_drawn: 0.0
  energy_regen: 0.0
  displacement: 1568.0
  distance_traveled: 4680.0
  fault_code: 0
---
header: 
  seq: 39798
  stamp: 
    secs: 1626107050
    nsecs: 737078333
  frame_id: ''
state: 
  voltage_input: 11.5
  temperature_pcb: 0.0
  current_motor: 12.32
  current_input: 1.18
  current_q: 12.51
  speed: 4691.0
  duty_cycle: 0.116
  charge_drawn: 40.0
  charge_regen: 0.0
  energy_drawn: 0.0
  energy_regen: 0.0
  displacement: 1577.0
  distance_traveled: 4689.0
  fault_code: 0
---
header: 
  seq: 39799
  stamp: 
    secs: 1626107050
    nsecs: 759951655
  frame_id: ''
state: 
  voltage_input: 11.6
  temperature_pcb: 0.0
  current_motor: 14.53
  current_input: 1.25
  current_q: 13.09
  speed: 4757.0
  duty_cycle: 0.063
  charge_drawn: 40.0
  charge_regen: 0.0
  energy_drawn: 0.0
  energy_regen: 0.0
  displacement: 1587.0
  distance_traveled: 4699.0
  fault_code: 0
---
header: 
  seq: 39800
  stamp: 
    secs: 1626107050
    nsecs: 777215517
  frame_id: ''
state: 
  voltage_input: 11.5
  temperature_pcb: 0.0
  current_motor: 13.83
  current_input: 1.3
  current_q: 14.29
  speed: 4768.0
  duty_cycle: 0.094
  charge_drawn: 40.0
  charge_regen: 0.0
  energy_drawn: 0.0
  energy_regen: 0.0
  displacement: 1597.0
  distance_traveled: 4709.0
  fault_code: 0
---
header: 
  seq: 39801
  stamp: 
    secs: 1626107050
    nsecs: 796763883
  frame_id: ''
state: 
  voltage_input: 11.5
  temperature_pcb: 0.0
  current_motor: 9.49
  current_input: 0.85
  current_q: 9.37
  speed: 4776.0
  duty_cycle: 0.11
  charge_drawn: 40.0
  charge_regen: 0.0
  energy_drawn: 0.0
  energy_regen: 0.0
  displacement: 1606.0
  distance_traveled: 4718.0
  fault_code: 0
---
header: 
  seq: 39802
  stamp: 
    secs: 1626107050
    nsecs: 816598353
  frame_id: ''
state: 
  voltage_input: 11.6
  temperature_pcb: 0.0
  current_motor: 9.19
  current_input: 0.79
  current_q: 8.69
  speed: 4811.0
  duty_cycle: 0.099
  charge_drawn: 40.0
  charge_regen: 0.0
  energy_drawn: 0.0
  energy_regen: 0.0
  displacement: 1616.0
  distance_traveled: 4728.0
  fault_code: 0
---
header: 
  seq: 39803
  stamp: 
    secs: 1626107050
    nsecs: 836704081
  frame_id: ''
state: 
  voltage_input: 11.6
  temperature_pcb: 0.0
  current_motor: 11.42
  current_input: 0.98
  current_q: 10.62
  speed: 4852.0
  duty_cycle: 0.062
  charge_drawn: 40.0
  charge_regen: 0.0
  energy_drawn: 0.0
  energy_regen: 0.0
  displacement: 1626.0
  distance_traveled: 4738.0
  fault_code: 0
---
header: 
  seq: 39804
  stamp: 
    secs: 1626107050
    nsecs: 856670691
  frame_id: ''
state: 
  voltage_input: 11.6
  temperature_pcb: 0.0
  current_motor: 15.07
  current_input: 1.41
  current_q: 14.95
  speed: 4865.0
  duty_cycle: 0.072
  charge_drawn: 40.0
  charge_regen: 0.0
  energy_drawn: 0.0
  energy_regen: 0.0
  displacement: 1636.0
  distance_traveled: 4748.0
  fault_code: 0
---
header: 
  seq: 39805
  stamp: 
    secs: 1626107050
    nsecs: 878201780
  frame_id: ''
state: 
  voltage_input: 11.6
  temperature_pcb: 0.0
  current_motor: 13.69
  current_input: 1.4
  current_q: 14.02
  speed: 4806.0
  duty_cycle: 0.115
  charge_drawn: 40.0
  charge_regen: 0.0
  energy_drawn: 0.0
  energy_regen: 0.0
  displacement: 1645.0
  distance_traveled: 4757.0
  fault_code: 0
---
header: 
  seq: 39806
  stamp: 
    secs: 1626107050
    nsecs: 896852928
  frame_id: ''
state: 
  voltage_input: 11.5
  temperature_pcb: 0.0
  current_motor: 11.34
  current_input: 1.06
  current_q: 11.05
  speed: 4805.0
  duty_cycle: 0.107
  charge_drawn: 40.0
  charge_regen: 0.0
  energy_drawn: 0.0
  energy_regen: 0.0
  displacement: 1655.0
  distance_traveled: 4767.0
  fault_code: 0
---
header: 
  seq: 39807
  stamp: 
    secs: 1626107050
    nsecs: 916677710
  frame_id: ''
state: 
  voltage_input: 11.5
  temperature_pcb: 0.0
  current_motor: 11.85
  current_input: 1.01
  current_q: 10.88
  speed: 4837.0
  duty_cycle: 0.08
  charge_drawn: 40.0
  charge_regen: 0.0
  energy_drawn: 0.0
  energy_regen: 0.0
  displacement: 1665.0
  distance_traveled: 4777.0
  fault_code: 0
---
header: 
  seq: 39808
  stamp: 
    secs: 1626107050
    nsecs: 936550983
  frame_id: ''
state: 
  voltage_input: 11.5
  temperature_pcb: 0.0
  current_motor: 12.18
  current_input: 1.06
  current_q: 12.04
  speed: 4879.0
  duty_cycle: 0.081
  charge_drawn: 40.0
  charge_regen: 0.0
  energy_drawn: 0.0
  energy_regen: 0.0
  displacement: 1675.0
  distance_traveled: 4787.0
  fault_code: 0
---
header: 
  seq: 39809
  stamp: 
    secs: 1626107050
    nsecs: 957675131
  frame_id: ''
state: 
  voltage_input: 11.6
  temperature_pcb: 0.0
  current_motor: 9.06
  current_input: 0.82
  current_q: 9.44
  speed: 4864.0
  duty_cycle: 0.11
  charge_drawn: 40.0
  charge_regen: 0.0
  energy_drawn: 0.0
  energy_regen: 0.0
  displacement: 1684.0
  distance_traveled: 4796.0
  fault_code: 0
---
header: 
  seq: 39810
  stamp: 
    secs: 1626107050
    nsecs: 976668218
  frame_id: ''
state: 
  voltage_input: 11.5
  temperature_pcb: 0.0
  current_motor: 9.58
  current_input: 0.77
  current_q: 8.71
  speed: 4879.0
  duty_cycle: 0.085
  charge_drawn: 40.0
  charge_regen: 0.0
  energy_drawn: 0.0
  energy_regen: 0.0
  displacement: 1694.0
  distance_traveled: 4806.0
  fault_code: 0
---
header: 
  seq: 39811
  stamp: 
    secs: 1626107050
    nsecs: 998108523
  frame_id: ''
state: 
  voltage_input: 11.5
  temperature_pcb: 0.0
  current_motor: 12.96
  current_input: 1.17
  current_q: 12.38
  speed: 4892.0
  duty_cycle: 0.065
  charge_drawn: 40.0
  charge_regen: 0.0
  energy_drawn: 0.0
  energy_regen: 0.0
  displacement: 1704.0
  distance_traveled: 4816.0
  fault_code: 0
---
header: 
  seq: 39812
  stamp: 
    secs: 1626107051
    nsecs:  17392193
  frame_id: ''
state: 
  voltage_input: 11.5
  temperature_pcb: 0.0
  current_motor: 14.81
  current_input: 1.43
  current_q: 15.11
  speed: 4889.0
  duty_cycle: 0.085
  charge_drawn: 40.0
  charge_regen: 0.0
  energy_drawn: 0.0
  energy_regen: 0.0
  displacement: 1714.0
  distance_traveled: 4826.0
  fault_code: 0
---
header: 
  seq: 39813
  stamp: 
    secs: 1626107051
    nsecs:  36586797
  frame_id: ''
state: 
  voltage_input: 11.6
  temperature_pcb: 0.0
  current_motor: 10.16
  current_input: 1.02
  current_q: 10.37
  speed: 4849.0
  duty_cycle: 0.112
  charge_drawn: 41.0
  charge_regen: 0.0
  energy_drawn: 0.0
  energy_regen: 0.0
  displacement: 1723.0
  distance_traveled: 4835.0
  fault_code: 0
---
header: 
  seq: 39814
  stamp: 
    secs: 1626107051
    nsecs:  56764924
  frame_id: ''
state: 
  voltage_input: 11.5
  temperature_pcb: 0.0
  current_motor: 9.34
  current_input: 0.81
  current_q: 8.39
  speed: 4871.0
  duty_cycle: 0.1
  charge_drawn: 41.0
  charge_regen: 0.0
  energy_drawn: 0.0
  energy_regen: 0.0
  displacement: 1733.0
  distance_traveled: 4845.0
  fault_code: 0
---
header: 
  seq: 39815
  stamp: 
    secs: 1626107051
    nsecs:  77089306
  frame_id: ''
state: 
  voltage_input: 11.6
  temperature_pcb: 0.0
  current_motor: 10.44
  current_input: 0.91
  current_q: 9.73
  speed: 4920.0
  duty_cycle: 0.066
  charge_drawn: 41.0
  charge_regen: 0.0
  energy_drawn: 0.0
  energy_regen: 0.0
  displacement: 1743.0
  distance_traveled: 4855.0
  fault_code: 0
---
header: 
  seq: 39816
  stamp: 
    secs: 1626107051
    nsecs:  98315957
  frame_id: ''
state: 
  voltage_input: 11.5
  temperature_pcb: 0.0
  current_motor: 10.36
  current_input: 0.9
  current_q: 10.24
  speed: 4941.0
  duty_cycle: 0.067
  charge_drawn: 41.0
  charge_regen: 0.0
  energy_drawn: 0.0
  energy_regen: 0.0
  displacement: 1754.0
  distance_traveled: 4866.0
  fault_code: 0
---
header: 
  seq: 39817
  stamp: 
    secs: 1626107051
    nsecs: 116915281
  frame_id: ''
state: 
  voltage_input: 11.6
  temperature_pcb: 0.0
  current_motor: 10.75
  current_input: 1.03
  current_q: 11.46
  speed: 4896.0
  duty_cycle: 0.109
  charge_drawn: 41.0
  charge_regen: 0.0
  energy_drawn: 0.0
  energy_regen: 0.0
  displacement: 1763.0
  distance_traveled: 4875.0
  fault_code: 0
---
header: 
  seq: 39818
  stamp: 
    secs: 1626107051
    nsecs: 136470002
  frame_id: ''
state: 
  voltage_input: 11.6
  temperature_pcb: 0.0
  current_motor: 12.34
  current_input: 1.04
  current_q: 11.1
  speed: 4927.0
  duty_cycle: 0.058
  charge_drawn: 41.0
  charge_regen: 0.0
  energy_drawn: 0.0
  energy_regen: 0.0
  displacement: 1773.0
  distance_traveled: 4885.0
  fault_code: 0
---
header: 
  seq: 39819
  stamp: 
    secs: 1626107051
    nsecs: 157007307
  frame_id: ''
state: 
  voltage_input: 11.5
  temperature_pcb: 0.0
  current_motor: 15.64
  current_input: 1.51
  current_q: 16.09
  speed: 4884.0
  duty_cycle: 0.102
  charge_drawn: 41.0
  charge_regen: 0.0
  energy_drawn: 0.0
  energy_regen: 0.0
  displacement: 1782.0
  distance_traveled: 4894.0
  fault_code: 0
---
header: 
  seq: 39820
  stamp: 
    secs: 1626107051
    nsecs: 177144652
  frame_id: ''
state: 
  voltage_input: 11.6
  temperature_pcb: 0.0
  current_motor: 10.69
  current_input: 0.97
  current_q: 10.61
  speed: 4858.0
  duty_cycle: 0.105
  charge_drawn: 41.0
  charge_regen: 0.0
  energy_drawn: 0.0
  energy_regen: 0.0
  displacement: 1792.0
  distance_traveled: 4904.0
  fault_code: 0
---
header: 
  seq: 39821
  stamp: 
    secs: 1626107051
    nsecs: 198436306
  frame_id: ''
state: 
  voltage_input: 11.5
  temperature_pcb: 0.0
  current_motor: 11.01
  current_input: 0.9
  current_q: 10.0
  speed: 4898.0
  duty_cycle: 0.073
  charge_drawn: 41.0
  charge_regen: 0.0
  energy_drawn: 0.0
  energy_regen: 0.0
  displacement: 1802.0
  distance_traveled: 4914.0
  fault_code: 0
---
header: 
  seq: 39822
  stamp: 
    secs: 1626107051
    nsecs: 217134435
  frame_id: ''
state: 
  voltage_input: 11.5
  temperature_pcb: 0.0
  current_motor: 10.96
  current_input: 1.0
  current_q: 11.36
  speed: 4905.0
  duty_cycle: 0.091
  charge_drawn: 41.0
  charge_regen: 0.0
  energy_drawn: 0.0
  energy_regen: 0.0
  displacement: 1812.0
  distance_traveled: 4924.0
  fault_code: 0
---
header: 
  seq: 39823
  stamp: 
    secs: 1626107051
    nsecs: 237037136
  frame_id: ''
state: 
  voltage_input: 11.5
  temperature_pcb: 0.0
  current_motor: 7.71
  current_input: 0.64
  current_q: 7.49
  speed: 4903.0
  duty_cycle: 0.1
  charge_drawn: 41.0
  charge_regen: 0.0
  energy_drawn: 0.0
  energy_regen: 0.0
  displacement: 1822.0
  distance_traveled: 4934.0
  fault_code: 0
---
header: 
  seq: 39824
  stamp: 
    secs: 1626107051
    nsecs: 256576960
  frame_id: ''
state: 
  voltage_input: 11.6
  temperature_pcb: 0.0
  current_motor: 12.1
  current_input: 0.99
  current_q: 10.96
  speed: 4925.0
  duty_cycle: 0.069
  charge_drawn: 41.0
  charge_regen: 0.0
  energy_drawn: 0.0
  energy_regen: 0.0
  displacement: 1831.0
  distance_traveled: 4943.0
  fault_code: 0
---
header: 
  seq: 39825
  stamp: 
    secs: 1626107051
    nsecs: 277904969
  frame_id: ''
state: 
  voltage_input: 11.5
  temperature_pcb: 0.0
  current_motor: 13.31
  current_input: 1.22
  current_q: 13.01
  speed: 4938.0
  duty_cycle: 0.059
  charge_drawn: 41.0
  charge_regen: 0.0
  energy_drawn: 0.0
  energy_regen: 0.0
  displacement: 1842.0
  distance_traveled: 4954.0
  fault_code: 0
---
header: 
  seq: 39826
  stamp: 
    secs: 1626107051
    nsecs: 297039259
  frame_id: ''
state: 
  voltage_input: 11.4
  temperature_pcb: 0.0
  current_motor: 12.0
  current_input: 1.2
  current_q: 12.56
  speed: 4903.0
  duty_cycle: 0.098
  charge_drawn: 41.0
  charge_regen: 0.0
  energy_drawn: 0.0
  energy_regen: 0.0
  displacement: 1851.0
  distance_traveled: 4963.0
  fault_code: 0
---
header: 
  seq: 39827
  stamp: 
    secs: 1626107051
    nsecs: 317607712
  frame_id: ''
state: 
  voltage_input: 11.5
  temperature_pcb: 0.0
  current_motor: 8.75
  current_input: 0.84
  current_q: 8.68
  speed: 4891.0
  duty_cycle: 0.11
  charge_drawn: 41.0
  charge_regen: 0.0
  energy_drawn: 0.0
  energy_regen: 0.0
  displacement: 1861.0
  distance_traveled: 4973.0
  fault_code: 0
---
header: 
  seq: 39828
  stamp: 
    secs: 1626107051
    nsecs: 337065085
  frame_id: ''
state: 
  voltage_input: 11.5
  temperature_pcb: 0.0
  current_motor: 7.5
  current_input: 0.63
  current_q: 6.61
  speed: 4923.0
  duty_cycle: 0.091
  charge_drawn: 41.0
  charge_regen: 0.0
  energy_drawn: 0.0
  energy_regen: 0.0
  displacement: 1871.0
  distance_traveled: 4983.0
  fault_code: 0
---
header: 
  seq: 39829
  stamp: 
    secs: 1626107051
    nsecs: 357415978
  frame_id: ''
state: 
  voltage_input: 11.5
  temperature_pcb: 0.0
  current_motor: 9.1
  current_input: 0.79
  current_q: 8.68
  speed: 4960.0
  duty_cycle: 0.068
  charge_drawn: 41.0
  charge_regen: 0.0
  energy_drawn: 0.0
  energy_regen: 0.0
  displacement: 1881.0
  distance_traveled: 4993.0
  fault_code: 0
---
header: 
  seq: 39830
  stamp: 
    secs: 1626107051
    nsecs: 377380296
  frame_id: ''
state: 
  voltage_input: 11.5
  temperature_pcb: 0.0
  current_motor: 10.58
  current_input: 0.98
  current_q: 11.07
  speed: 4954.0
  duty_cycle: 0.091
  charge_drawn: 41.0
  charge_regen: 0.0
  energy_drawn: 0.0
  energy_regen: 0.0
  displacement: 1891.0
  distance_traveled: 5003.0
  fault_code: 0
---
header: 
  seq: 39831
  stamp: 
    secs: 1626107051
    nsecs: 398698513
  frame_id: ''
state: 
  voltage_input: 11.5
  temperature_pcb: 0.0
  current_motor: 10.13
  current_input: 0.94
  current_q: 10.32
  speed: 4932.0
  duty_cycle: 0.11
  charge_drawn: 41.0
  charge_regen: 0.0
  energy_drawn: 0.0
  energy_regen: 0.0
  displacement: 1901.0
  distance_traveled: 5013.0
  fault_code: 0
---
header: 
  seq: 39832
  stamp: 
    secs: 1626107051
    nsecs: 418349799
  frame_id: ''
state: 
  voltage_input: 11.6
  temperature_pcb: 0.0
  current_motor: 10.04
  current_input: 0.84
  current_q: 9.18
  speed: 4942.0
  duty_cycle: 0.082
  charge_drawn: 42.0
  charge_regen: 0.0
  energy_drawn: 0.0
  energy_regen: 0.0
  displacement: 1911.0
  distance_traveled: 5023.0
  fault_code: 0
---
header: 
  seq: 39833
  stamp: 
    secs: 1626107051
    nsecs: 436556870
  frame_id: ''
state: 
  voltage_input: 11.6
  temperature_pcb: 0.0
  current_motor: 12.48
  current_input: 1.09
  current_q: 12.26
  speed: 4966.0
  duty_cycle: 0.082
  charge_drawn: 42.0
  charge_regen: 0.0
  energy_drawn: 0.0
  energy_regen: 0.0
  displacement: 1920.0
  distance_traveled: 5032.0
  fault_code: 0
---
header: 
  seq: 39834
  stamp: 
    secs: 1626107051
    nsecs: 457134177
  frame_id: ''
state: 
  voltage_input: 11.5
  temperature_pcb: 0.0
  current_motor: 8.53
  current_input: 0.79
  current_q: 8.72
  speed: 4961.0
  duty_cycle: 0.096
  charge_drawn: 42.0
  charge_regen: 0.0
  energy_drawn: 0.0
  energy_regen: 0.0
  displacement: 1931.0
  distance_traveled: 5043.0
  fault_code: 0
---
header: 
  seq: 39835
  stamp: 
    secs: 1626107051
    nsecs: 477584136
  frame_id: ''
state: 
  voltage_input: 11.6
  temperature_pcb: 0.0
  current_motor: 8.06
  current_input: 0.76
  current_q: 7.82
  speed: 4968.0
  duty_cycle: 0.096
  charge_drawn: 42.0
  charge_regen: 0.0
  energy_drawn: 0.0
  energy_regen: 0.0
  displacement: 1941.0
  distance_traveled: 5053.0
  fault_code: 0
---
header: 
  seq: 39836
  stamp: 
    secs: 1626107051
    nsecs: 496607641
  frame_id: ''
state: 
  voltage_input: 11.4
  temperature_pcb: 0.0
  current_motor: 6.46
  current_input: 0.64
  current_q: 6.42
  speed: 4971.0
  duty_cycle: 0.112
  charge_drawn: 42.0
  charge_regen: 0.0
  energy_drawn: 0.0
  energy_regen: 0.0
  displacement: 1950.0
  distance_traveled: 5062.0
  fault_code: 0
---
header: 
  seq: 39837
  stamp: 
    secs: 1626107051
    nsecs: 516963795
  frame_id: ''
state: 
  voltage_input: 11.5
  temperature_pcb: 0.0
  current_motor: 7.72
  current_input: 0.68
  current_q: 7.26
  speed: 4983.0
  duty_cycle: 0.104
  charge_drawn: 42.0
  charge_regen: 0.0
  energy_drawn: 0.0
  energy_regen: 0.0
  displacement: 1960.0
  distance_traveled: 5073.0
  fault_code: 0
---
header: 
  seq: 39838
  stamp: 
    secs: 1626107051
    nsecs: 537309375
  frame_id: ''
state: 
  voltage_input: 11.5
  temperature_pcb: 0.0
  current_motor: 9.21
  current_input: 0.78
  current_q: 8.53
  speed: 4989.0
  duty_cycle: 0.081
  charge_drawn: 42.0
  charge_regen: 0.0
  energy_drawn: 0.0
  energy_regen: 0.0
  displacement: 1971.0
  distance_traveled: 5083.0
  fault_code: 0
---
header: 
  seq: 39839
  stamp: 
    secs: 1626107051
    nsecs: 557892099
  frame_id: ''
state: 
  voltage_input: 11.5
  temperature_pcb: 0.0
  current_motor: 10.03
  current_input: 0.84
  current_q: 9.41
  speed: 5003.0
  duty_cycle: 0.066
  charge_drawn: 42.0
  charge_regen: 0.0
  energy_drawn: 0.0
  energy_regen: 0.0
  displacement: 1981.0
  distance_traveled: 5093.0
  fault_code: 0
---
header: 
  seq: 39840
  stamp: 
    secs: 1626107051
    nsecs: 578010797
  frame_id: ''
state: 
  voltage_input: 11.5
  temperature_pcb: 0.0
  current_motor: 10.69
  current_input: 0.94
  current_q: 10.27
  speed: 5019.0
  duty_cycle: 0.059
  charge_drawn: 42.0
  charge_regen: 0.0
  energy_drawn: 0.0
  energy_regen: 0.0
  displacement: 1991.0
  distance_traveled: 5103.0
  fault_code: 0
---
header: 
  seq: 39841
  stamp: 
    secs: 1626107051
    nsecs: 596623194
  frame_id: ''
state: 
  voltage_input: 11.5
  temperature_pcb: 0.0
  current_motor: 9.35
  current_input: 0.98
  current_q: 9.71
  speed: 5005.0
  duty_cycle: 0.095
  charge_drawn: 42.0
  charge_regen: 0.0
  energy_drawn: 0.0
  energy_regen: 0.0
  displacement: 2001.0
  distance_traveled: 5113.0
  fault_code: 0
---
header: 
  seq: 39842
  stamp: 
    secs: 1626107051
    nsecs: 617780104
  frame_id: ''
state: 
  voltage_input: 11.5
  temperature_pcb: 0.0
  current_motor: 7.89
  current_input: 0.78
  current_q: 8.1
  speed: 4992.0
  duty_cycle: 0.1
  charge_drawn: 42.0
  charge_regen: 0.0
  energy_drawn: 0.0
  energy_regen: 0.0
  displacement: 2011.0
  distance_traveled: 5123.0
  fault_code: 0
---
header: 
  seq: 39843
  stamp: 
    secs: 1626107051
    nsecs: 636877517
  frame_id: ''
state: 
  voltage_input: 11.5
  temperature_pcb: 0.0
  current_motor: 8.0
  current_input: 0.71
  current_q: 7.77
  speed: 4976.0
  duty_cycle: 0.106
  charge_drawn: 42.0
  charge_regen: 0.0
  energy_drawn: 0.0
  energy_regen: 0.0
  displacement: 2020.0
  distance_traveled: 5132.0
  fault_code: 0
---
header: 
  seq: 39844
  stamp: 
    secs: 1626107051
    nsecs: 656711518
  frame_id: ''
state: 
  voltage_input: 11.5
  temperature_pcb: 0.0
  current_motor: 12.92
  current_input: 1.11
  current_q: 12.12
  speed: 5002.0
  duty_cycle: 0.061
  charge_drawn: 42.0
  charge_regen: 0.0
  energy_drawn: 0.0
  energy_regen: 0.0
  displacement: 2030.0
  distance_traveled: 5142.0
  fault_code: 0
---
header: 
  seq: 39845
  stamp: 
    secs: 1626107051
    nsecs: 676782454
  frame_id: ''
state: 
  voltage_input: 11.6
  temperature_pcb: 0.0
  current_motor: 12.2
  current_input: 1.2
  current_q: 13.08
  speed: 4942.0
  duty_cycle: 0.103
  charge_drawn: 42.0
  charge_regen: 0.0
  energy_drawn: 0.0
  energy_regen: 0.0
  displacement: 2040.0
  distance_traveled: 5152.0
  fault_code: 0
---
header: 
  seq: 39846
  stamp: 
    secs: 1626107051
    nsecs: 697090377
  frame_id: ''
state: 
  voltage_input: 11.5
  temperature_pcb: 0.0
  current_motor: 10.03
  current_input: 0.88
  current_q: 9.73
  speed: 4923.0
  duty_cycle: 0.109
  charge_drawn: 42.0
  charge_regen: 0.0
  energy_drawn: 0.0
  energy_regen: 0.0
  displacement: 2050.0
  distance_traveled: 5162.0
  fault_code: 0
---
header: 
  seq: 39847
  stamp: 
    secs: 1626107051
    nsecs: 716662390
  frame_id: ''
state: 
  voltage_input: 11.5
  temperature_pcb: 0.0
  current_motor: 10.87
  current_input: 0.91
  current_q: 9.97
  speed: 4957.0
  duty_cycle: 0.07
  charge_drawn: 42.0
  charge_regen: 0.0
  energy_drawn: 0.0
  energy_regen: 0.0
  displacement: 2060.0
  distance_traveled: 5172.0
  fault_code: 0
---
header: 
  seq: 39848
  stamp: 
    secs: 1626107051
    nsecs: 736893331
  frame_id: ''
state: 
  voltage_input: 11.6
  temperature_pcb: 0.0
  current_motor: 9.53
  current_input: 0.87
  current_q: 8.82
  speed: 4972.0
  duty_cycle: 0.058
  charge_drawn: 42.0
  charge_regen: 0.0
  energy_drawn: 0.0
  energy_regen: 0.0
  displacement: 2070.0
  distance_traveled: 5182.0
  fault_code: 0
---
header: 
  seq: 39849
  stamp: 
    secs: 1626107051
    nsecs: 757170836
  frame_id: ''
state: 
  voltage_input: 11.5
  temperature_pcb: 0.0
  current_motor: 9.92
  current_input: 0.95
  current_q: 9.71
  speed: 4996.0
  duty_cycle: 0.061
  charge_drawn: 42.0
  charge_regen: 0.0
  energy_drawn: 0.0
  energy_regen: 0.0
  displacement: 2080.0
  distance_traveled: 5192.0
  fault_code: 0
---
header: 
  seq: 39850
  stamp: 
    secs: 1626107051
    nsecs: 776409921
  frame_id: ''
state: 
  voltage_input: 11.6
  temperature_pcb: 0.0
  current_motor: 10.75
  current_input: 1.05
  current_q: 11.32
  speed: 4960.0
  duty_cycle: 0.107
  charge_drawn: 42.0
  charge_regen: 0.0
  energy_drawn: 0.0
  energy_regen: 0.0
  displacement: 2090.0
  distance_traveled: 5202.0
  fault_code: 0
---
header: 
  seq: 39851
  stamp: 
    secs: 1626107051
    nsecs: 797527611
  frame_id: ''
state: 
  voltage_input: 11.5
  temperature_pcb: 0.0
  current_motor: 9.41
  current_input: 0.89
  current_q: 9.55
  speed: 4933.0
  duty_cycle: 0.111
  charge_drawn: 42.0
  charge_regen: 0.0
  energy_drawn: 0.0
  energy_regen: 0.0
  displacement: 2100.0
  distance_traveled: 5212.0
  fault_code: 0
---
header: 
  seq: 39852
  stamp: 
    secs: 1626107051
    nsecs: 816854407
  frame_id: ''
state: 
  voltage_input: 11.6
  temperature_pcb: 0.0
  current_motor: 10.7
  current_input: 0.89
  current_q: 9.45
  speed: 4946.0
  duty_cycle: 0.075
  charge_drawn: 43.0
  charge_regen: 0.0
  energy_drawn: 0.0
  energy_regen: 0.0
  displacement: 2109.0
  distance_traveled: 5221.0
  fault_code: 0
---
header: 
  seq: 39853
  stamp: 
    secs: 1626107051
    nsecs: 837024356
  frame_id: ''
state: 
  voltage_input: 11.5
  temperature_pcb: 0.0
  current_motor: 12.0
  current_input: 1.04
  current_q: 11.76
  speed: 4976.0
  duty_cycle: 0.068
  charge_drawn: 43.0
  charge_regen: 0.0
