header: 
  seq: 174188
  stamp: 
    secs: 1625854261
    nsecs: 742565918
  frame_id: ''
state: 
  voltage_input: 11.7
  temperature_pcb: 0.0
  current_motor: 0.0
  current_input: 0.0
  current_q: 0.0
  speed: 1.0
  duty_cycle: 0.0
  charge_drawn: 76.0
  charge_regen: 0.0
  energy_drawn: 0.0
  energy_regen: 0.0
  displacement: 3795.0
  distance_traveled: 10153.0
  fault_code: 0
---
header: 
  seq: 174189
  stamp: 
    secs: 1625854261
    nsecs: 762455941
  frame_id: ''
state: 
  voltage_input: 11.7
  temperature_pcb: 0.0
  current_motor: 0.0
  current_input: 0.0
  current_q: 0.0
  speed: 0.0
  duty_cycle: 0.0
  charge_drawn: 76.0
  charge_regen: 0.0
  energy_drawn: 0.0
  energy_regen: 0.0
  displacement: 3795.0
  distance_traveled: 10153.0
  fault_code: 0
---
header: 
  seq: 174190
  stamp: 
    secs: 1625854261
    nsecs: 782729267
  frame_id: ''
state: 
  voltage_input: 11.7
  temperature_pcb: 0.0
  current_motor: 0.0
  current_input: 0.0
  current_q: 0.0
  speed: 1.0
  duty_cycle: 0.0
  charge_drawn: 76.0
  charge_regen: 0.0
  energy_drawn: 0.0
  energy_regen: 0.0
  displacement: 3795.0
  distance_traveled: 10153.0
  fault_code: 0
---
header: 
  seq: 174191
  stamp: 
    secs: 1625854261
    nsecs: 802463970
  frame_id: ''
state: 
  voltage_input: 11.6
  temperature_pcb: 0.0
  current_motor: 0.0
  current_input: 0.0
  current_q: 0.0
  speed: 0.0
  duty_cycle: 0.0
  charge_drawn: 76.0
  charge_regen: 0.0
  energy_drawn: 0.0
  energy_regen: 0.0
  displacement: 3795.0
  distance_traveled: 10153.0
  fault_code: 0
---
header: 
  seq: 174192
  stamp: 
    secs: 1625854261
    nsecs: 822474677
  frame_id: ''
state: 
  voltage_input: 11.7
  temperature_pcb: 0.0
  current_motor: 0.0
  current_input: 0.0
  current_q: 0.0
  speed: 0.0
  duty_cycle: 0.0
  charge_drawn: 76.0
  charge_regen: 0.0
  energy_drawn: 0.0
  energy_regen: 0.0
  displacement: 3795.0
  distance_traveled: 10153.0
  fault_code: 0
---
header: 
  seq: 174193
  stamp: 
    secs: 1625854261
    nsecs: 842609454
  frame_id: ''
state: 
  voltage_input: 11.7
  temperature_pcb: 0.0
  current_motor: 0.0
  current_input: 0.0
  current_q: 0.0
  speed: 1.0
  duty_cycle: 0.0
  charge_drawn: 76.0
  charge_regen: 0.0
  energy_drawn: 0.0
  energy_regen: 0.0
  displacement: 3795.0
  distance_traveled: 10153.0
  fault_code: 0
---
header: 
  seq: 174194
  stamp: 
    secs: 1625854261
    nsecs: 862141021
  frame_id: ''
state: 
  voltage_input: 11.6
  temperature_pcb: 0.0
  current_motor: 0.0
  current_input: 0.0
  current_q: 0.0
  speed: 0.0
  duty_cycle: 0.0
  charge_drawn: 76.0
  charge_regen: 0.0
  energy_drawn: 0.0
  energy_regen: 0.0
  displacement: 3795.0
  distance_traveled: 10153.0
  fault_code: 0
---
header: 
  seq: 174195
  stamp: 
    secs: 1625854261
    nsecs: 882595815
  frame_id: ''
state: 
  voltage_input: 11.6
  temperature_pcb: 0.0
  current_motor: 0.0
  current_input: 0.0
  current_q: 0.0
  speed: 0.0
  duty_cycle: 0.0
  charge_drawn: 76.0
  charge_regen: 0.0
  energy_drawn: 0.0
  energy_regen: 0.0
  displacement: 3795.0
  distance_traveled: 10153.0
  fault_code: 0
---
header: 
  seq: 174196
  stamp: 
    secs: 1625854261
    nsecs: 902479224
  frame_id: ''
state: 
  voltage_input: 11.6
  temperature_pcb: 0.0
  current_motor: 0.0
  current_input: 0.0
  current_q: 0.0
  speed: 0.0
  duty_cycle: 0.0
  charge_drawn: 76.0
  charge_regen: 0.0
  energy_drawn: 0.0
  energy_regen: 0.0
  displacement: 3795.0
  distance_traveled: 10153.0
  fault_code: 0
---
header: 
  seq: 174197
  stamp: 
    secs: 1625854261
    nsecs: 922131162
  frame_id: ''
state: 
  voltage_input: 11.7
  temperature_pcb: 0.0
  current_motor: 0.0
  current_input: 0.0
  current_q: 0.0
  speed: 0.0
  duty_cycle: 0.0
  charge_drawn: 76.0
  charge_regen: 0.0
  energy_drawn: 0.0
  energy_regen: 0.0
  displacement: 3795.0
  distance_traveled: 10153.0
  fault_code: 0
---
header: 
  seq: 174198
  stamp: 
    secs: 1625854261
    nsecs: 942465585
  frame_id: ''
state: 
  voltage_input: 11.7
  temperature_pcb: 0.0
  current_motor: 0.0
  current_input: 0.0
  current_q: 0.0
  speed: 0.0
  duty_cycle: 0.0
  charge_drawn: 76.0
  charge_regen: 0.0
  energy_drawn: 0.0
  energy_regen: 0.0
  displacement: 3795.0
  distance_traveled: 10153.0
  fault_code: 0
---
header: 
  seq: 174199
  stamp: 
    secs: 1625854261
    nsecs: 962312325
  frame_id: ''
state: 
  voltage_input: 11.6
  temperature_pcb: 0.0
  current_motor: 0.0
  current_input: 0.0
  current_q: 0.0
  speed: -1.0
  duty_cycle: 0.0
  charge_drawn: 76.0
  charge_regen: 0.0
  energy_drawn: 0.0
  energy_regen: 0.0
  displacement: 3795.0
  distance_traveled: 10153.0
  fault_code: 0
---
header: 
  seq: 174200
  stamp: 
    secs: 1625854261
    nsecs: 982481478
  frame_id: ''
state: 
  voltage_input: 11.7
  temperature_pcb: 0.0
  current_motor: 0.0
  current_input: 0.0
  current_q: 0.0
  speed: -1.0
  duty_cycle: 0.0
  charge_drawn: 76.0
  charge_regen: 0.0
  energy_drawn: 0.0
  energy_regen: 0.0
  displacement: 3795.0
  distance_traveled: 10153.0
  fault_code: 0
---
header: 
  seq: 174201
  stamp: 
    secs: 1625854262
    nsecs:   2263840
  frame_id: ''
state: 
  voltage_input: 11.6
  temperature_pcb: 0.0
  current_motor: 0.0
  current_input: 0.0
  current_q: 0.0
  speed: 0.0
  duty_cycle: 0.0
  charge_drawn: 76.0
  charge_regen: 0.0
  energy_drawn: 0.0
  energy_regen: 0.0
  displacement: 3795.0
  distance_traveled: 10153.0
  fault_code: 0
---
header: 
  seq: 174202
  stamp: 
    secs: 1625854262
    nsecs:  22149697
  frame_id: ''
state: 
  voltage_input: 11.6
  temperature_pcb: 0.0
  current_motor: 0.0
  current_input: 0.0
  current_q: 0.0
  speed: -1.0
  duty_cycle: 0.0
  charge_drawn: 76.0
  charge_regen: 0.0
  energy_drawn: 0.0
  energy_regen: 0.0
  displacement: 3795.0
  distance_traveled: 10153.0
  fault_code: 0
---
header: 
  seq: 174203
  stamp: 
    secs: 1625854262
    nsecs:  42205355
  frame_id: ''
state: 
  voltage_input: 11.6
  temperature_pcb: 0.0
  current_motor: 0.0
  current_input: 0.0
  current_q: 0.0
  speed: -1.0
  duty_cycle: 0.0
  charge_drawn: 76.0
  charge_regen: 0.0
  energy_drawn: 0.0
  energy_regen: 0.0
  displacement: 3795.0
  distance_traveled: 10153.0
  fault_code: 0
---
header: 
  seq: 174204
  stamp: 
    secs: 1625854262
    nsecs:  62197155
  frame_id: ''
state: 
  voltage_input: 11.6
  temperature_pcb: 0.0
  current_motor: 0.0
  current_input: 0.0
  current_q: 0.0
  speed: -1.0
  duty_cycle: 0.0
  charge_drawn: 76.0
  charge_regen: 0.0
  energy_drawn: 0.0
  energy_regen: 0.0
  displacement: 3795.0
  distance_traveled: 10153.0
  fault_code: 0
---
header: 
  seq: 174205
  stamp: 
    secs: 1625854262
    nsecs:  85341155
  frame_id: ''
state: 
  voltage_input: 11.7
  temperature_pcb: 0.0
  current_motor: 0.0
  current_input: 0.0
  current_q: 0.0
  speed: 0.0
  duty_cycle: 0.0
  charge_drawn: 76.0
  charge_regen: 0.0
  energy_drawn: 0.0
  energy_regen: 0.0
  displacement: 3795.0
  distance_traveled: 10153.0
  fault_code: 0
---
header: 
  seq: 174206
  stamp: 
    secs: 1625854262
    nsecs: 102421862
  frame_id: ''
state: 
  voltage_input: 11.6
  temperature_pcb: 0.0
  current_motor: 0.0
  current_input: 0.0
  current_q: 0.0
  speed: 0.0
  duty_cycle: 0.0
  charge_drawn: 76.0
  charge_regen: 0.0
  energy_drawn: 0.0
  energy_regen: 0.0
  displacement: 3795.0
  distance_traveled: 10153.0
  fault_code: 0
---
header: 
  seq: 174207
  stamp: 
    secs: 1625854262
    nsecs: 122195369
  frame_id: ''
state: 
  voltage_input: 11.7
  temperature_pcb: 0.0
  current_motor: 0.0
  current_input: 0.0
  current_q: 0.0
  speed: 0.0
  duty_cycle: 0.0
  charge_drawn: 76.0
  charge_regen: 0.0
  energy_drawn: 0.0
  energy_regen: 0.0
  displacement: 3795.0
  distance_traveled: 10153.0
  fault_code: 0
---
header: 
  seq: 174208
  stamp: 
    secs: 1625854262
    nsecs: 142610161
  frame_id: ''
state: 
  voltage_input: 11.7
  temperature_pcb: 0.0
  current_motor: 0.0
  current_input: 0.0
  current_q: 0.0
  speed: 0.0
  duty_cycle: 0.0
  charge_drawn: 76.0
  charge_regen: 0.0
  energy_drawn: 0.0
  energy_regen: 0.0
  displacement: 3795.0
  distance_traveled: 10153.0
  fault_code: 0
---
header: 
  seq: 174209
  stamp: 
    secs: 1625854262
    nsecs: 167562956
  frame_id: ''
state: 
  voltage_input: 11.6
  temperature_pcb: 0.0
  current_motor: 0.0
  current_input: 0.0
  current_q: 0.0
  speed: 0.0
  duty_cycle: 0.0
  charge_drawn: 76.0
  charge_regen: 0.0
  energy_drawn: 0.0
  energy_regen: 0.0
  displacement: 3795.0
  distance_traveled: 10153.0
  fault_code: 0
---
header: 
  seq: 174210
  stamp: 
    secs: 1625854262
    nsecs: 182195979
  frame_id: ''
state: 
  voltage_input: 11.7
  temperature_pcb: 0.0
  current_motor: 0.0
  current_input: 0.0
  current_q: 0.0
  speed: 1.0
  duty_cycle: 0.0
  charge_drawn: 76.0
  charge_regen: 0.0
  energy_drawn: 0.0
  energy_regen: 0.0
  displacement: 3795.0
  distance_traveled: 10153.0
  fault_code: 0
---
header: 
  seq: 174211
  stamp: 
    secs: 1625854262
    nsecs: 202198978
  frame_id: ''
state: 
  voltage_input: 11.7
  temperature_pcb: 0.0
  current_motor: 0.0
  current_input: 0.0
  current_q: 0.0
  speed: 1.0
  duty_cycle: 0.0
  charge_drawn: 76.0
  charge_regen: 0.0
  energy_drawn: 0.0
  energy_regen: 0.0
  displacement: 3795.0
  distance_traveled: 10153.0
  fault_code: 0
---
header: 
  seq: 174212
  stamp: 
    secs: 1625854262
    nsecs: 222399487
  frame_id: ''
state: 
  voltage_input: 11.7
  temperature_pcb: 0.0
  current_motor: 0.0
  current_input: 0.0
  current_q: 0.0
  speed: 0.0
  duty_cycle: 0.0
  charge_drawn: 76.0
  charge_regen: 0.0
  energy_drawn: 0.0
  energy_regen: 0.0
  displacement: 3795.0
  distance_traveled: 10153.0
  fault_code: 0
---
header: 
  seq: 174213
  stamp: 
    secs: 1625854262
    nsecs: 242809539
  frame_id: ''
state: 
  voltage_input: 11.7
  temperature_pcb: 0.0
  current_motor: 0.0
  current_input: 0.0
  current_q: 0.0
  speed: 1.0
  duty_cycle: 0.0
  charge_drawn: 76.0
  charge_regen: 0.0
  energy_drawn: 0.0
  energy_regen: 0.0
  displacement: 3795.0
  distance_traveled: 10153.0
  fault_code: 0
---
header: 
  seq: 174214
  stamp: 
    secs: 1625854262
    nsecs: 262460904
  frame_id: ''
state: 
  voltage_input: 11.7
  temperature_pcb: 0.0
  current_motor: 0.0
  current_input: 0.0
  current_q: 0.0
  speed: 0.0
  duty_cycle: 0.0
  charge_drawn: 76.0
  charge_regen: 0.0
  energy_drawn: 0.0
  energy_regen: 0.0
  displacement: 3795.0
  distance_traveled: 10153.0
  fault_code: 0
---
header: 
  seq: 174215
  stamp: 
    secs: 1625854262
    nsecs: 282551147
  frame_id: ''
state: 
  voltage_input: 11.7
  temperature_pcb: 0.0
  current_motor: 0.0
  current_input: 0.0
  current_q: 0.0
  speed: 0.0
  duty_cycle: 0.0
  charge_drawn: 76.0
  charge_regen: 0.0
  energy_drawn: 0.0
  energy_regen: 0.0
  displacement: 3795.0
  distance_traveled: 10153.0
  fault_code: 0
---
header: 
  seq: 174216
  stamp: 
    secs: 1625854262
    nsecs: 302142353
  frame_id: ''
state: 
  voltage_input: 11.6
  temperature_pcb: 0.0
  current_motor: 0.0
  current_input: 0.0
  current_q: 0.0
  speed: -1.0
  duty_cycle: 0.0
  charge_drawn: 76.0
  charge_regen: 0.0
  energy_drawn: 0.0
  energy_regen: 0.0
  displacement: 3795.0
  distance_traveled: 10153.0
  fault_code: 0
---
header: 
  seq: 174217
  stamp: 
    secs: 1625854262
    nsecs: 322392083
  frame_id: ''
state: 
  voltage_input: 11.6
  temperature_pcb: 0.0
  current_motor: 0.0
  current_input: 0.0
  current_q: 0.0
  speed: 0.0
  duty_cycle: 0.0
  charge_drawn: 76.0
  charge_regen: 0.0
  energy_drawn: 0.0
  energy_regen: 0.0
  displacement: 3795.0
  distance_traveled: 10153.0
  fault_code: 0
---
header: 
  seq: 174218
  stamp: 
    secs: 1625854262
    nsecs: 342228927
  frame_id: ''
state: 
  voltage_input: 11.7
  temperature_pcb: 0.0
  current_motor: 0.0
  current_input: 0.0
  current_q: 0.0
  speed: 0.0
  duty_cycle: 0.0
  charge_drawn: 76.0
  charge_regen: 0.0
  energy_drawn: 0.0
  energy_regen: 0.0
  displacement: 3795.0
  distance_traveled: 10153.0
  fault_code: 0
---
header: 
  seq: 174219
  stamp: 
    secs: 1625854262
    nsecs: 363031865
  frame_id: ''
state: 
  voltage_input: 11.6
  temperature_pcb: 0.0
  current_motor: 0.0
  current_input: 0.0
  current_q: 0.0
  speed: 1.0
  duty_cycle: 0.0
  charge_drawn: 76.0
  charge_regen: 0.0
  energy_drawn: 0.0
  energy_regen: 0.0
  displacement: 3795.0
  distance_traveled: 10153.0
  fault_code: 0
---
header: 
  seq: 174220
  stamp: 
    secs: 1625854262
    nsecs: 382550046
  frame_id: ''
state: 
  voltage_input: 11.6
  temperature_pcb: 0.0
  current_motor: 0.0
  current_input: 0.0
  current_q: 0.0
  speed: 0.0
  duty_cycle: 0.0
  charge_drawn: 76.0
  charge_regen: 0.0
  energy_drawn: 0.0
  energy_regen: 0.0
  displacement: 3795.0
  distance_traveled: 10153.0
  fault_code: 0
---
header: 
  seq: 174221
  stamp: 
    secs: 1625854262
    nsecs: 402212141
  frame_id: ''
state: 
  voltage_input: 11.6
  temperature_pcb: 0.0
  current_motor: 0.0
  current_input: 0.0
  current_q: 0.0
  speed: -1.0
  duty_cycle: 0.0
  charge_drawn: 76.0
  charge_regen: 0.0
  energy_drawn: 0.0
  energy_regen: 0.0
  displacement: 3795.0
  distance_traveled: 10153.0
  fault_code: 0
---
header: 
  seq: 174222
  stamp: 
    secs: 1625854262
    nsecs: 422177637
  frame_id: ''
state: 
  voltage_input: 11.7
  temperature_pcb: 0.0
  current_motor: 0.0
  current_input: 0.0
  current_q: 0.0
  speed: 0.0
  duty_cycle: 0.0
  charge_drawn: 76.0
  charge_regen: 0.0
  energy_drawn: 0.0
  energy_regen: 0.0
  displacement: 3795.0
  distance_traveled: 10153.0
  fault_code: 0
---
header: 
  seq: 174223
  stamp: 
    secs: 1625854262
    nsecs: 442208710
  frame_id: ''
state: 
  voltage_input: 11.7
  temperature_pcb: 0.0
  current_motor: 0.0
  current_input: 0.0
  current_q: 0.0
  speed: 0.0
  duty_cycle: 0.0
  charge_drawn: 76.0
  charge_regen: 0.0
  energy_drawn: 0.0
  energy_regen: 0.0
  displacement: 3795.0
  distance_traveled: 10153.0
  fault_code: 0
---
header: 
  seq: 174224
  stamp: 
    secs: 1625854262
    nsecs: 462201709
  frame_id: ''
state: 
  voltage_input: 11.6
  temperature_pcb: 0.0
  current_motor: 0.0
  current_input: 0.0
  current_q: 0.0
  speed: 1.0
  duty_cycle: -0.001
  charge_drawn: 76.0
  charge_regen: 0.0
  energy_drawn: 0.0
  energy_regen: 0.0
  displacement: 3795.0
  distance_traveled: 10153.0
  fault_code: 0
---
header: 
  seq: 174225
  stamp: 
    secs: 1625854262
    nsecs: 482938028
  frame_id: ''
state: 
  voltage_input: 11.6
  temperature_pcb: 0.0
  current_motor: 0.0
  current_input: 0.0
  current_q: 0.0
  speed: 0.0
  duty_cycle: 0.0
  charge_drawn: 76.0
  charge_regen: 0.0
  energy_drawn: 0.0
  energy_regen: 0.0
  displacement: 3795.0
  distance_traveled: 10153.0
  fault_code: 0
---
header: 
  seq: 174226
  stamp: 
    secs: 1625854262
    nsecs: 502431832
  frame_id: ''
state: 
  voltage_input: 11.6
  temperature_pcb: 0.0
  current_motor: 0.0
  current_input: 0.0
  current_q: 0.0
  speed: 0.0
  duty_cycle: 0.0
  charge_drawn: 76.0
  charge_regen: 0.0
  energy_drawn: 0.0
  energy_regen: 0.0
  displacement: 3795.0
  distance_traveled: 10153.0
  fault_code: 0
---
header: 
  seq: 174227
  stamp: 
    secs: 1625854262
    nsecs: 523192841
  frame_id: ''
state: 
  voltage_input: 11.6
  temperature_pcb: 0.0
  current_motor: 0.0
  current_input: 0.0
  current_q: 0.0
  speed: 0.0
  duty_cycle: 0.0
  charge_drawn: 76.0
  charge_regen: 0.0
  energy_drawn: 0.0
  energy_regen: 0.0
  displacement: 3795.0
  distance_traveled: 10153.0
  fault_code: 0
---
header: 
  seq: 174228
  stamp: 
    secs: 1625854262
    nsecs: 543022757
  frame_id: ''
state: 
  voltage_input: 11.7
  temperature_pcb: 0.0
  current_motor: 0.0
  current_input: 0.0
  current_q: 0.0
  speed: 0.0
  duty_cycle: 0.0
  charge_drawn: 76.0
  charge_regen: 0.0
  energy_drawn: 0.0
  energy_regen: 0.0
  displacement: 3795.0
  distance_traveled: 10153.0
  fault_code: 0
---
header: 
  seq: 174229
  stamp: 
    secs: 1625854262
    nsecs: 562299988
  frame_id: ''
state: 
  voltage_input: 11.7
  temperature_pcb: 0.0
  current_motor: 0.0
  current_input: 0.0
  current_q: 0.0
  speed: 0.0
  duty_cycle: 0.0
  charge_drawn: 76.0
  charge_regen: 0.0
  energy_drawn: 0.0
  energy_regen: 0.0
  displacement: 3795.0
  distance_traveled: 10153.0
  fault_code: 0
---
header: 
  seq: 174230
  stamp: 
    secs: 1625854262
    nsecs: 582249233
  frame_id: ''
state: 
  voltage_input: 11.6
  temperature_pcb: 0.0
  current_motor: 0.0
  current_input: 0.0
  current_q: 0.0
  speed: 0.0
  duty_cycle: 0.0
  charge_drawn: 76.0
  charge_regen: 0.0
  energy_drawn: 0.0
  energy_regen: 0.0
  displacement: 3795.0
  distance_traveled: 10153.0
  fault_code: 0
---
header: 
  seq: 174231
  stamp: 
    secs: 1625854262
    nsecs: 605005817
  frame_id: ''
state: 
  voltage_input: 11.7
  temperature_pcb: 0.0
  current_motor: 0.0
  current_input: 0.0
  current_q: 0.0
  speed: 0.0
  duty_cycle: 0.0
  charge_drawn: 76.0
  charge_regen: 0.0
  energy_drawn: 0.0
  energy_regen: 0.0
  displacement: 3795.0
  distance_traveled: 10153.0
  fault_code: 0
---
header: 
  seq: 174232
  stamp: 
    secs: 1625854262
    nsecs: 622393676
  frame_id: ''
state: 
  voltage_input: 11.7
  temperature_pcb: 0.0
  current_motor: 0.0
  current_input: 0.0
  current_q: 0.0
  speed: 0.0
  duty_cycle: 0.0
  charge_drawn: 76.0
  charge_regen: 0.0
  energy_drawn: 0.0
  energy_regen: 0.0
  displacement: 3795.0
  distance_traveled: 10153.0
  fault_code: 0
---
header: 
  seq: 174233
  stamp: 
    secs: 1625854262
    nsecs: 642548766
  frame_id: ''
state: 
  voltage_input: 11.7
  temperature_pcb: 0.0
  current_motor: 0.0
  current_input: 0.0
  current_q: 0.0
  speed: -1.0
  duty_cycle: 0.0
  charge_drawn: 76.0
  charge_regen: 0.0
  energy_drawn: 0.0
  energy_regen: 0.0
  displacement: 3795.0
  distance_traveled: 10153.0
  fault_code: 0
---
header: 
  seq: 174234
  stamp: 
    secs: 1625854262
    nsecs: 662578224
  frame_id: ''
state: 
  voltage_input: 11.6
  temperature_pcb: 0.0
  current_motor: 0.0
  current_input: 0.0
  current_q: 0.0
  speed: -2.0
  duty_cycle: 0.0
  charge_drawn: 76.0
  charge_regen: 0.0
  energy_drawn: 0.0
  energy_regen: 0.0
  displacement: 3795.0
  distance_traveled: 10153.0
  fault_code: 0
---
header: 
  seq: 174235
  stamp: 
    secs: 1625854262
    nsecs: 682597161
  frame_id: ''
state: 
  voltage_input: 11.6
  temperature_pcb: 0.0
  current_motor: 0.0
  current_input: 0.0
  current_q: 0.0
  speed: -1.0
  duty_cycle: 0.0
  charge_drawn: 76.0
  charge_regen: 0.0
  energy_drawn: 0.0
  energy_regen: 0.0
  displacement: 3795.0
  distance_traveled: 10153.0
  fault_code: 0
---
header: 
  seq: 174236
  stamp: 
    secs: 1625854262
    nsecs: 702874758
  frame_id: ''
state: 
  voltage_input: 11.6
  temperature_pcb: 0.0
  current_motor: 0.0
  current_input: 0.0
  current_q: 0.0
  speed: -1.0
  duty_cycle: 0.0
  charge_drawn: 76.0
  charge_regen: 0.0
  energy_drawn: 0.0
  energy_regen: 0.0
  displacement: 3795.0
  distance_traveled: 10153.0
  fault_code: 0
---
header: 
  seq: 174237
  stamp: 
    secs: 1625854262
    nsecs: 723149386
  frame_id: ''
state: 
  voltage_input: 11.7
  temperature_pcb: 0.0
  current_motor: 0.0
  current_input: 0.0
  current_q: 0.0
  speed: 0.0
  duty_cycle: 0.0
  charge_drawn: 76.0
  charge_regen: 0.0
  energy_drawn: 0.0
  energy_regen: 0.0
  displacement: 3795.0
  distance_traveled: 10153.0
  fault_code: 0
---
header: 
  seq: 174238
  stamp: 
    secs: 1625854262
    nsecs: 743109830
  frame_id: ''
state: 
  voltage_input: 11.6
  temperature_pcb: 0.0
  current_motor: 0.0
  current_input: 0.0
  current_q: 0.0
  speed: 0.0
  duty_cycle: 0.0
  charge_drawn: 76.0
  charge_regen: 0.0
  energy_drawn: 0.0
  energy_regen: 0.0
  displacement: 3795.0
  distance_traveled: 10153.0
  fault_code: 0
---
header: 
  seq: 174239
  stamp: 
    secs: 1625854262
    nsecs: 763491599
  frame_id: ''
state: 
  voltage_input: 11.6
  temperature_pcb: 0.0
  current_motor: 0.0
  current_input: 0.0
  current_q: 0.0
  speed: 0.0
  duty_cycle: 0.0
  charge_drawn: 76.0
  charge_regen: 0.0
  energy_drawn: 0.0
  energy_regen: 0.0
  displacement: 3795.0
  distance_traveled: 10153.0
  fault_code: 0
---
header: 
  seq: 174240
  stamp: 
    secs: 1625854262
    nsecs: 782941964
  frame_id: ''
state: 
  voltage_input: 11.7
  temperature_pcb: 0.0
  current_motor: 0.0
  current_input: 0.0
  current_q: 0.0
  speed: 0.0
  duty_cycle: 0.0
  charge_drawn: 76.0
  charge_regen: 0.0
  energy_drawn: 0.0
  energy_regen: 0.0
  displacement: 3795.0
  distance_traveled: 10153.0
  fault_code: 0
---
header: 
  seq: 174241
  stamp: 
    secs: 1625854262
    nsecs: 803757037
  frame_id: ''
state: 
  voltage_input: 11.7
  temperature_pcb: 0.0
  current_motor: 0.0
  current_input: 0.0
  current_q: 0.0
  speed: 0.0
  duty_cycle: 0.0
  charge_drawn: 76.0
  charge_regen: 0.0
  energy_drawn: 0.0
  energy_regen: 0.0
  displacement: 3795.0
  distance_traveled: 10153.0
  fault_code: 0
---
header: 
  seq: 174242
  stamp: 
    secs: 1625854262
    nsecs: 822868842
  frame_id: ''
state: 
  voltage_input: 11.6
  temperature_pcb: 0.0
  current_motor: 0.0
  current_input: 0.0
  current_q: 0.0
  speed: 1.0
  duty_cycle: 0.0
  charge_drawn: 76.0
  charge_regen: 0.0
  energy_drawn: 0.0
  energy_regen: 0.0
  displacement: 3795.0
  distance_traveled: 10153.0
  fault_code: 0
---
header: 
  seq: 174243
  stamp: 
    secs: 1625854262
    nsecs: 843513282
  frame_id: ''
state: 
  voltage_input: 11.6
  temperature_pcb: 0.0
  current_motor: 0.0
  current_input: 0.0
  current_q: 0.0
  speed: 1.0
  duty_cycle: 0.0
  charge_drawn: 76.0
  charge_regen: 0.0
  energy_drawn: 0.0
  energy_regen: 0.0
  displacement: 3795.0
  distance_traveled: 10153.0
  fault_code: 0
---
header: 
  seq: 174244
  stamp: 
    secs: 1625854262
    nsecs: 862342103
  frame_id: ''
state: 
  voltage_input: 11.6
  temperature_pcb: 0.0
  current_motor: 0.0
  current_input: 0.0
  current_q: 0.0
  speed: 1.0
  duty_cycle: 0.0
  charge_drawn: 76.0
  charge_regen: 0.0
  energy_drawn: 0.0
  energy_regen: 0.0
  displacement: 3795.0
  distance_traveled: 10153.0
  fault_code: 0
---
header: 
  seq: 174245
  stamp: 
    secs: 1625854262
    nsecs: 885380993
  frame_id: ''
state: 
  voltage_input: 11.6
  temperature_pcb: 0.0
  current_motor: 0.0
  current_input: 0.0
  current_q: 0.0
  speed: 2.0
  duty_cycle: 0.0
  charge_drawn: 76.0
  charge_regen: 0.0
  energy_drawn: 0.0
  energy_regen: 0.0
  displacement: 3795.0
  distance_traveled: 10153.0
  fault_code: 0
---
header: 
  seq: 174246
  stamp: 
    secs: 1625854262
    nsecs: 903264035
  frame_id: ''
state: 
  voltage_input: 11.7
  temperature_pcb: 0.0
  current_motor: 0.0
  current_input: 0.0
  current_q: 0.0
  speed: -1.0
  duty_cycle: 0.0
  charge_drawn: 76.0
  charge_regen: 0.0
  energy_drawn: 0.0
  energy_regen: 0.0
  displacement: 3795.0
  distance_traveled: 10153.0
  fault_code: 0
---
header: 
  seq: 174247
  stamp: 
    secs: 1625854262
    nsecs: 924278129
  frame_id: ''
state: 
  voltage_input: 11.6
  temperature_pcb: 0.0
  current_motor: 15.27
  current_input: 1.02
  current_q: 17.41
  speed: -2.0
  duty_cycle: 0.072
  charge_drawn: 76.0
  charge_regen: 0.0
  energy_drawn: 0.0
  energy_regen: 0.0
  displacement: 3795.0
  distance_traveled: 10153.0
  fault_code: 0
---
header: 
  seq: 174248
  stamp: 
    secs: 1625854262
    nsecs: 942998455
  frame_id: ''
state: 
  voltage_input: 11.7
  temperature_pcb: 0.0
  current_motor: 59.96
  current_input: 3.73
  current_q: 59.95
  speed: -56.0
  duty_cycle: 0.072
  charge_drawn: 76.0
  charge_regen: 0.0
  energy_drawn: 0.0
  energy_regen: 0.0
  displacement: 3794.0
  distance_traveled: 10154.0
  fault_code: 0
---
header: 
  seq: 174249
  stamp: 
    secs: 1625854262
    nsecs: 962940148
  frame_id: ''
state: 
  voltage_input: 11.6
  temperature_pcb: 0.0
  current_motor: 59.94
  current_input: 3.78
  current_q: 59.91
  speed: -78.0
  duty_cycle: 0.073
  charge_drawn: 76.0
  charge_regen: 0.0
  energy_drawn: 0.0
  energy_regen: 0.0
  displacement: 3794.0
  distance_traveled: 10154.0
  fault_code: 0
---
header: 
  seq: 174250
  stamp: 
    secs: 1625854262
    nsecs: 983694645
  frame_id: ''
state: 
  voltage_input: 11.7
  temperature_pcb: 0.0
  current_motor: 59.97
  current_input: 3.82
  current_q: 59.98
  speed: -86.0
  duty_cycle: 0.073
  charge_drawn: 76.0
  charge_regen: 0.0
  energy_drawn: 0.0
  energy_regen: 0.0
  displacement: 3794.0
  distance_traveled: 10154.0
  fault_code: 0
---
header: 
  seq: 174251
  stamp: 
    secs: 1625854263
    nsecs:   3062245
  frame_id: ''
state: 
  voltage_input: 11.6
  temperature_pcb: 0.0
  current_motor: 60.04
  current_input: 3.8
  current_q: 60.04
  speed: -103.0
  duty_cycle: 0.072
  charge_drawn: 77.0
  charge_regen: 0.0
  energy_drawn: 0.0
  energy_regen: 0.0
  displacement: 3794.0
  distance_traveled: 10154.0
  fault_code: 0
---
header: 
  seq: 174252
  stamp: 
    secs: 1625854263
    nsecs:  24963992
  frame_id: ''
state: 
  voltage_input: 11.7
  temperature_pcb: 0.0
  current_motor: 50.72
  current_input: 3.18
  current_q: 50.17
  speed: 123.0
  duty_cycle: 0.087
  charge_drawn: 77.0
  charge_regen: 0.0
  energy_drawn: 0.0
  energy_regen: 0.0
  displacement: 3795.0
  distance_traveled: 10157.0
  fault_code: 0
---
header: 
  seq: 174253
  stamp: 
    secs: 1625854263
    nsecs:  42866565
  frame_id: ''
state: 
  voltage_input: 11.6
  temperature_pcb: 0.0
  current_motor: 60.65
  current_input: 3.88
  current_q: 60.62
  speed: 136.0
  duty_cycle: 0.074
  charge_drawn: 77.0
  charge_regen: 0.0
  energy_drawn: 0.0
  energy_regen: 0.0
  displacement: 3795.0
  distance_traveled: 10157.0
  fault_code: 0
---
header: 
  seq: 174254
  stamp: 
    secs: 1625854263
    nsecs:  63276513
  frame_id: ''
state: 
  voltage_input: 11.7
  temperature_pcb: 0.0
  current_motor: 60.19
  current_input: 3.81
  current_q: 60.06
  speed: 204.0
  duty_cycle: 0.073
  charge_drawn: 77.0
  charge_regen: 0.0
  energy_drawn: 0.0
  energy_regen: 0.0
  displacement: 3796.0
  distance_traveled: 10158.0
  fault_code: 0
---
header: 
  seq: 174255
  stamp: 
    secs: 1625854263
    nsecs:  83475720
  frame_id: ''
state: 
  voltage_input: 11.6
  temperature_pcb: 0.0
  current_motor: 60.3
  current_input: 3.93
  current_q: 60.21
  speed: 319.0
  duty_cycle: 0.071
  charge_drawn: 77.0
  charge_regen: 0.0
  energy_drawn: 0.0
  energy_regen: 0.0
  displacement: 3797.0
  distance_traveled: 10159.0
  fault_code: 0
---
header: 
  seq: 174256
  stamp: 
    secs: 1625854263
    nsecs: 103725034
  frame_id: ''
state: 
  voltage_input: 11.6
  temperature_pcb: 0.0
  current_motor: 59.95
  current_input: 3.95
  current_q: 59.8
  speed: 461.0
  duty_cycle: 0.076
  charge_drawn: 78.0
  charge_regen: 0.0
  energy_drawn: 0.0
  energy_regen: 0.0
  displacement: 3799.0
  distance_traveled: 10161.0
  fault_code: 0
---
header: 
  seq: 174257
  stamp: 
    secs: 1625854263
    nsecs: 123131646
  frame_id: ''
state: 
  voltage_input: 11.6
  temperature_pcb: 0.0
  current_motor: 59.57
  current_input: 4.28
  current_q: 59.61
  speed: 624.0
  duty_cycle: 0.085
  charge_drawn: 78.0
  charge_regen: 0.0
  energy_drawn: 0.0
  energy_regen: 0.0
  displacement: 3801.0
  distance_traveled: 10163.0
  fault_code: 0
---
header: 
  seq: 174258
  stamp: 
    secs: 1625854263
    nsecs: 143434297
  frame_id: ''
state: 
  voltage_input: 11.6
  temperature_pcb: 0.0
  current_motor: 59.91
  current_input: 4.51
  current_q: 59.87
  speed: 760.0
  duty_cycle: 0.089
  charge_drawn: 78.0
  charge_regen: 0.0
  energy_drawn: 0.0
  energy_regen: 0.0
  displacement: 3804.0
  distance_traveled: 10166.0
  fault_code: 0
---
header: 
  seq: 174259
  stamp: 
    secs: 1625854263
    nsecs: 164711114
  frame_id: ''
state: 
  voltage_input: 11.7
  temperature_pcb: 0.0
  current_motor: 59.78
  current_input: 4.6
  current_q: 59.69
  speed: 871.0
  duty_cycle: 0.095
  charge_drawn: 78.0
  charge_regen: 0.0
  energy_drawn: 0.0
  energy_regen: 0.0
  displacement: 3806.0
  distance_traveled: 10168.0
  fault_code: 0
---
header: 
  seq: 174260
  stamp: 
    secs: 1625854263
    nsecs: 183207886
  frame_id: ''
state: 
  voltage_input: 11.7
  temperature_pcb: 0.0
  current_motor: 58.24
  current_input: 4.49
  current_q: 58.19
  speed: 1026.0
  duty_cycle: 0.097
  charge_drawn: 79.0
  charge_regen: 0.0
  energy_drawn: 0.0
  energy_regen: 0.0
  displacement: 3809.0
  distance_traveled: 10171.0
  fault_code: 0
---
header: 
  seq: 174261
  stamp: 
    secs: 1625854263
    nsecs: 203064835
  frame_id: ''
state: 
  voltage_input: 11.6
  temperature_pcb: 0.0
  current_motor: 60.3
  current_input: 5.13
  current_q: 60.25
  speed: 1176.0
  duty_cycle: 0.095
  charge_drawn: 79.0
  charge_regen: 0.0
  energy_drawn: 0.0
  energy_regen: 0.0
  displacement: 3812.0
  distance_traveled: 10174.0
  fault_code: 0
---
header: 
  seq: 174262
  stamp: 
    secs: 1625854263
    nsecs: 223155442
  frame_id: ''
state: 
  voltage_input: 11.6
  temperature_pcb: 0.0
  current_motor: 59.92
  current_input: 5.23
  current_q: 59.91
  speed: 1352.0
  duty_cycle: 0.099
  charge_drawn: 79.0
  charge_regen: 0.0
  energy_drawn: 0.0
  energy_regen: 0.0
  displacement: 3816.0
  distance_traveled: 10178.0
  fault_code: 0
---
header: 
  seq: 174263
  stamp: 
    secs: 1625854263
    nsecs: 244014008
  frame_id: ''
state: 
  voltage_input: 11.6
  temperature_pcb: 0.0
  current_motor: 59.92
  current_input: 5.36
  current_q: 59.74
  speed: 1537.0
  duty_cycle: 0.106
  charge_drawn: 79.0
  charge_regen: 0.0
  energy_drawn: 0.0
  energy_regen: 0.0
  displacement: 3820.0
  distance_traveled: 10182.0
  fault_code: 0
---
header: 
  seq: 174264
  stamp: 
    secs: 1625854263
    nsecs: 263782254
  frame_id: ''
state: 
  voltage_input: 11.6
  temperature_pcb: 0.0
  current_motor: 59.9
  current_input: 5.58
  current_q: 59.91
  speed: 1731.0
  duty_cycle: 0.109
  charge_drawn: 80.0
  charge_regen: 0.0
  energy_drawn: 0.0
  energy_regen: 0.0
  displacement: 3825.0
  distance_traveled: 10187.0
  fault_code: 0
---
header: 
  seq: 174265
  stamp: 
    secs: 1625854263
    nsecs: 284177982
  frame_id: ''
state: 
  voltage_input: 11.6
  temperature_pcb: 0.0
  current_motor: 60.03
  current_input: 5.83
  current_q: 60.02
  speed: 1952.0
  duty_cycle: 0.11
  charge_drawn: 80.0
  charge_regen: 0.0
  energy_drawn: 0.0
  energy_regen: 0.0
  displacement: 3830.0
  distance_traveled: 10192.0
  fault_code: 0
---
header: 
  seq: 174266
  stamp: 
    secs: 1625854263
    nsecs: 303501465
  frame_id: ''
state: 
  voltage_input: 11.6
  temperature_pcb: 0.0
  current_motor: 59.37
  current_input: 5.84
  current_q: 59.08
  speed: 2166.0
  duty_cycle: 0.12
  charge_drawn: 80.0
  charge_regen: 0.0
  energy_drawn: 0.0
  energy_regen: 0.0
  displacement: 3835.0
  distance_traveled: 10197.0
  fault_code: 0
---
header: 
  seq: 174267
  stamp: 
    secs: 1625854263
    nsecs: 322575196
  frame_id: ''
state: 
  voltage_input: 11.6
  temperature_pcb: 0.0
  current_motor: 55.22
  current_input: 5.4
  current_q: 54.95
  speed: 2393.0
  duty_cycle: 0.119
  charge_drawn: 81.0
  charge_regen: 0.0
  energy_drawn: 0.0
  energy_regen: 0.0
  displacement: 3841.0
  distance_traveled: 10203.0
  fault_code: 0
---
header: 
  seq: 174268
  stamp: 
    secs: 1625854263
    nsecs: 343276669
  frame_id: ''
state: 
  voltage_input: 11.6
  temperature_pcb: 0.0
  current_motor: 49.99
  current_input: 4.79
  current_q: 49.79
  speed: 2632.0
  duty_cycle: 0.107
  charge_drawn: 81.0
  charge_regen: 0.0
  energy_drawn: 0.0
  energy_regen: 0.0
  displacement: 3848.0
  distance_traveled: 10210.0
  fault_code: 0
---
header: 
  seq: 174269
  stamp: 
    secs: 1625854263
    nsecs: 363825895
  frame_id: ''
state: 
  voltage_input: 11.7
  temperature_pcb: 0.0
  current_motor: 44.65
  current_input: 4.15
  current_q: 44.38
  speed: 2852.0
  duty_cycle: 0.103
  charge_drawn: 81.0
  charge_regen: 0.0
  energy_drawn: 0.0
  energy_regen: 0.0
  displacement: 3855.0
  distance_traveled: 10217.0
  fault_code: 0
---
header: 
  seq: 174270
  stamp: 
    secs: 1625854263
    nsecs: 383485959
  frame_id: ''
state: 
  voltage_input: 11.6
  temperature_pcb: 0.0
  current_motor: 38.4
  current_input: 3.44
  current_q: 37.94
  speed: 3072.0
  duty_cycle: 0.103
  charge_drawn: 81.0
  charge_regen: 0.0
  energy_drawn: 0.0
  energy_regen: 0.0
  displacement: 3862.0
  distance_traveled: 10224.0
  fault_code: 0
---
header: 
  seq: 174271
  stamp: 
    secs: 1625854263
    nsecs: 403233787
  frame_id: ''
state: 
  voltage_input: 11.6
  temperature_pcb: 0.0
  current_motor: 35.23
  current_input: 3.17
  current_q: 35.18
  speed: 3281.0
  duty_cycle: 0.105
  charge_drawn: 82.0
  charge_regen: 0.0
  energy_drawn: 0.0
  energy_regen: 0.0
  displacement: 3870.0
  distance_traveled: 10232.0
  fault_code: 0
---
header: 
  seq: 174272
  stamp: 
    secs: 1625854263
    nsecs: 422733790
  frame_id: ''
state: 
  voltage_input: 11.6
  temperature_pcb: 0.0
  current_motor: 32.17
  current_input: 2.85
  current_q: 32.19
  speed: 3461.0
  duty_cycle: 0.101
  charge_drawn: 82.0
  charge_regen: 0.0
  energy_drawn: 0.0
  energy_regen: 0.0
  displacement: 3878.0
  distance_traveled: 10240.0
  fault_code: 0
---
header: 
  seq: 174273
  stamp: 
    secs: 1625854263
    nsecs: 443579126
  frame_id: ''
state: 
  voltage_input: 11.6
  temperature_pcb: 0.0
  current_motor: 32.07
  current_input: 2.82
  current_q: 31.64
  speed: 3621.0
  duty_cycle: 0.098
  charge_drawn: 82.0
  charge_regen: 0.0
  energy_drawn: 0.0
  energy_regen: 0.0
  displacement: 3886.0
  distance_traveled: 10248.0
  fault_code: 0
---
header: 
  seq: 174274
  stamp: 
    secs: 1625854263
    nsecs: 463881047
  frame_id: ''
state: 
  voltage_input: 11.6
  temperature_pcb: 0.0
  current_motor: 28.77
  current_input: 2.52
  current_q: 28.75
  speed: 3759.0
  duty_cycle: 0.11
  charge_drawn: 82.0
  charge_regen: 0.0
  energy_drawn: 0.0
  energy_regen: 0.0
  displacement: 3894.0
  distance_traveled: 10256.0
  fault_code: 0
---
header: 
  seq: 174275
  stamp: 
    secs: 1625854263
    nsecs: 483129526
  frame_id: ''
state: 
  voltage_input: 11.6
  temperature_pcb: 0.0
  current_motor: 26.76
  current_input: 2.31
  current_q: 26.39
  speed: 3908.0
  duty_cycle: 0.095
  charge_drawn: 82.0
  charge_regen: 0.0
  energy_drawn: 0.0
  energy_regen: 0.0
  displacement: 3903.0
  distance_traveled: 10265.0
  fault_code: 0
---
header: 
  seq: 174276
  stamp: 
    secs: 1625854263
    nsecs: 503741515
  frame_id: ''
state: 
  voltage_input: 11.6
  temperature_pcb: 0.0
  current_motor: 22.47
  current_input: 1.91
  current_q: 22.63
  speed: 4034.0
  duty_cycle: 0.096
  charge_drawn: 82.0
  charge_regen: 0.0
  energy_drawn: 0.0
  energy_regen: 0.0
  displacement: 3912.0
  distance_traveled: 10274.0
  fault_code: 0
---
header: 
  seq: 174277
  stamp: 
    secs: 1625854263
    nsecs: 522860925
  frame_id: ''
state: 
  voltage_input: 11.6
  temperature_pcb: 0.0
  current_motor: 22.2
  current_input: 1.91
  current_q: 21.91
  speed: 4166.0
  duty_cycle: 0.095
  charge_drawn: 82.0
  charge_regen: 0.0
  energy_drawn: 0.0
  energy_regen: 0.0
  displacement: 3921.0
  distance_traveled: 10283.0
  fault_code: 0
---
header: 
  seq: 174278
  stamp: 
    secs: 1625854263
    nsecs: 543153939
  frame_id: ''
state: 
  voltage_input: 11.7
  temperature_pcb: 0.0
  current_motor: 15.71
  current_input: 1.26
  current_q: 15.19
  speed: 4281.0
  duty_cycle: 0.087
  charge_drawn: 83.0
  charge_regen: 0.0
  energy_drawn: 0.0
  energy_regen: 0.0
  displacement: 3930.0
  distance_traveled: 10292.0
  fault_code: 0
---
header: 
  seq: 174279
  stamp: 
    secs: 1625854263
    nsecs: 562942760
  frame_id: ''
state: 
  voltage_input: 11.7
  temperature_pcb: 0.0
  current_motor: 19.76
  current_input: 1.94
  current_q: 19.63
  speed: 4422.0
  duty_cycle: 0.079
  charge_drawn: 83.0
  charge_regen: 0.0
  energy_drawn: 0.0
  energy_regen: 0.0
  displacement: 3940.0
  distance_traveled: 10302.0
  fault_code: 0
---
header: 
  seq: 174280
  stamp: 
    secs: 1625854263
    nsecs: 583985762
  frame_id: ''
state: 
  voltage_input: 11.7
  temperature_pcb: 0.0
  current_motor: 15.19
  current_input: 1.57
  current_q: 16.34
  speed: 4446.0
  duty_cycle: 0.122
  charge_drawn: 83.0
  charge_regen: 0.0
  energy_drawn: 0.0
  energy_regen: 0.0
  displacement: 3949.0
  distance_traveled: 10311.0
  fault_code: 0
---
header: 
  seq: 174281
  stamp: 
    secs: 1625854263
    nsecs: 604869798
  frame_id: ''
state: 
  voltage_input: 11.6
  temperature_pcb: 0.0
  current_motor: 16.36
  current_input: 1.54
  current_q: 15.03
  speed: 4531.0
  duty_cycle: 0.09
  charge_drawn: 83.0
  charge_regen: 0.0
  energy_drawn: 0.0
  energy_regen: 0.0
  displacement: 3959.0
  distance_traveled: 10321.0
  fault_code: 0
---
header: 
  seq: 174282
  stamp: 
    secs: 1625854263
    nsecs: 623264273
  frame_id: ''
state: 
  voltage_input: 11.6
  temperature_pcb: 0.0
  current_motor: 23.95
  current_input: 2.44
  current_q: 24.17
  speed: 4582.0
  duty_cycle: 0.099
  charge_drawn: 83.0
  charge_regen: 0.0
  energy_drawn: 0.0
  energy_regen: 0.0
  displacement: 3968.0
  distance_traveled: 10330.0
  fault_code: 0
---
header: 
  seq: 174283
  stamp: 
    secs: 1625854263
    nsecs: 643989081
  frame_id: ''
state: 
  voltage_input: 11.6
  temperature_pcb: 0.0
  current_motor: 14.95
  current_input: 1.45
  current_q: 14.89
  speed: 4595.0
  duty_cycle: 0.121
  charge_drawn: 83.0
  charge_regen: 0.0
  energy_drawn: 0.0
  energy_regen: 0.0
  displacement: 3977.0
  distance_traveled: 10339.0
  fault_code: 0
---
header: 
  seq: 174284
  stamp: 
    secs: 1625854263
    nsecs: 664133649
  frame_id: ''
state: 
  voltage_input: 11.6
  temperature_pcb: 0.0
  current_motor: 15.16
  current_input: 1.32
  current_q: 13.49
  speed: 4713.0
  duty_cycle: 0.064
  charge_drawn: 83.0
  charge_regen: 0.0
  energy_drawn: 0.0
  energy_regen: 0.0
  displacement: 3987.0
  distance_traveled: 10349.0
  fault_code: 0
---
header: 
  seq: 174285
  stamp: 
    secs: 1625854263
    nsecs: 683401244
  frame_id: ''
state: 
  voltage_input: 11.7
  temperature_pcb: 0.0
  current_motor: 14.6
  current_input: 1.45
  current_q: 15.5
  speed: 4732.0
  duty_cycle: 0.112
  charge_drawn: 83.0
  charge_regen: 0.0
  energy_drawn: 0.0
  energy_regen: 0.0
  displacement: 3997.0
  distance_traveled: 10359.0
  fault_code: 0
---
header: 
  seq: 174286
  stamp: 
    secs: 1625854263
    nsecs: 704312521
  frame_id: ''
state: 
  voltage_input: 11.6
  temperature_pcb: 0.0
  current_motor: 10.59
  current_input: 0.93
  current_q: 9.91
  speed: 4782.0
  duty_cycle: 0.092
  charge_drawn: 83.0
  charge_regen: 0.0
  energy_drawn: 0.0
  energy_regen: 0.0
  displacement: 4007.0
  distance_traveled: 10369.0
  fault_code: 0
---
header: 
  seq: 174287
  stamp: 
    secs: 1625854263
    nsecs: 723164468
  frame_id: ''
state: 
  voltage_input: 11.7
  temperature_pcb: 0.0
  current_motor: 17.36
  current_input: 1.64
  current_q: 16.98
  speed: 4847.0
  duty_cycle: 0.072
  charge_drawn: 83.0
  charge_regen: 0.0
  energy_drawn: 0.0
  energy_regen: 0.0
  displacement: 4017.0
  distance_traveled: 10379.0
  fault_code: 0
---
header: 
  seq: 174288
  stamp: 
    secs: 1625854263
    nsecs: 743864431
  frame_id: ''
state: 
  voltage_input: 11.6
  temperature_pcb: 0.0
  current_motor: 13.67
  current_input: 1.38
  current_q: 14.37
  speed: 4822.0
  duty_cycle: 0.115
  charge_drawn: 83.0
  charge_regen: 0.0
  energy_drawn: 0.0
  energy_regen: 0.0
  displacement: 4026.0
  distance_traveled: 10388.0
  fault_code: 0
---
header: 
  seq: 174289
  stamp: 
    secs: 1625854263
    nsecs: 763725547
  frame_id: ''
state: 
  voltage_input: 11.6
  temperature_pcb: 0.0
  current_motor: 11.56
  current_input: 1.01
  current_q: 10.49
  speed: 4854.0
  duty_cycle: 0.099
  charge_drawn: 83.0
  charge_regen: 0.0
  energy_drawn: 0.0
  energy_regen: 0.0
  displacement: 4036.0
  distance_traveled: 10398.0
  fault_code: 0
---
header: 
  seq: 174290
  stamp: 
    secs: 1625854263
    nsecs: 782915429
  frame_id: ''
state: 
  voltage_input: 11.6
  temperature_pcb: 0.0
  current_motor: 14.11
  current_input: 1.25
  current_q: 13.56
  speed: 4925.0
  duty_cycle: 0.065
  charge_drawn: 84.0
  charge_regen: 0.0
  energy_drawn: 0.0
  energy_regen: 0.0
  displacement: 4046.0
  distance_traveled: 10408.0
  fault_code: 0
---
header: 
  seq: 174291
  stamp: 
    secs: 1625854263
    nsecs: 803236935
  frame_id: ''
state: 
  voltage_input: 11.6
  temperature_pcb: 0.0
  current_motor: 10.5
  current_input: 0.94
  current_q: 10.38
  speed: 4959.0
  duty_cycle: 0.083
  charge_drawn: 84.0
  charge_regen: 0.0
  energy_drawn: 0.0
  energy_regen: 0.0
  displacement: 4056.0
  distance_traveled: 10418.0
  fault_code: 0
---
header: 
  seq: 174292
  stamp: 
    secs: 1625854263
    nsecs: 823617714
  frame_id: ''
state: 
  voltage_input: 11.7
  temperature_pcb: 0.0
  current_motor: 9.06
  current_input: 0.81
  current_q: 9.04
  speed: 4972.0
  duty_cycle: 0.105
  charge_drawn: 84.0
  charge_regen: 0.0
  energy_drawn: 0.0
  energy_regen: 0.0
  displacement: 4066.0
  distance_traveled: 10428.0
  fault_code: 0
---
header: 
  seq: 174293
  stamp: 
    secs: 1625854263
    nsecs: 843751709
  frame_id: ''
state: 
  voltage_input: 11.6
  temperature_pcb: 0.0
  current_motor: 8.59
  current_input: 0.79
  current_q: 8.84
  speed: 4978.0
  duty_cycle: 0.107
  charge_drawn: 84.0
  charge_regen: 0.0
  energy_drawn: 0.0
  energy_regen: 0.0
  displacement: 4077.0
  distance_traveled: 10439.0
  fault_code: 0
---
header: 
  seq: 174294
  stamp: 
    secs: 1625854263
    nsecs: 863023575
  frame_id: ''
state: 
  voltage_input: 11.6
  temperature_pcb: 0.0
  current_motor: 12.76
  current_input: 1.07
  current_q: 11.34
  speed: 5004.0
  duty_cycle: 0.069
  charge_drawn: 84.0
  charge_regen: 0.0
  energy_drawn: 0.0
  energy_regen: 0.0
  displacement: 4087.0
  distance_traveled: 10449.0
  fault_code: 0
---
header: 
  seq: 174295
  stamp: 
    secs: 1625854263
    nsecs: 883005531
  frame_id: ''
state: 
  voltage_input: 11.6
  temperature_pcb: 0.0
  current_motor: 15.96
  current_input: 1.51
  current_q: 15.86
  speed: 5013.0
  duty_cycle: 0.074
  charge_drawn: 84.0
  charge_regen: 0.0
  energy_drawn: 0.0
  energy_regen: 0.0
  displacement: 4097.0
  distance_traveled: 10459.0
  fault_code: 0
---
header: 
  seq: 174296
  stamp: 
    secs: 1625854263
    nsecs: 904687838
  frame_id: ''
state: 
  voltage_input: 11.7
  temperature_pcb: 0.0
  current_motor: 14.19
  current_input: 1.37
  current_q: 14.28
  speed: 4979.0
  duty_cycle: 0.1
  charge_drawn: 84.0
  charge_regen: 0.0
  energy_drawn: 0.0
  energy_regen: 0.0
  displacement: 4107.0
  distance_traveled: 10469.0
  fault_code: 0
---
header: 
  seq: 174297
  stamp: 
    secs: 1625854263
    nsecs: 922646769
  frame_id: ''
state: 
  voltage_input: 11.7
  temperature_pcb: 0.0
  current_motor: 9.76
  current_input: 0.9
  current_q: 9.58
  speed: 4960.0
  duty_cycle: 0.114
  charge_drawn: 84.0
  charge_regen: 0.0
  energy_drawn: 0.0
  energy_regen: 0.0
  displacement: 4116.0
  distance_traveled: 10478.0
  fault_code: 0
---
header: 
  seq: 174298
  stamp: 
    secs: 1625854263
    nsecs: 943779308
  frame_id: ''
state: 
  voltage_input: 11.6
  temperature_pcb: 0.0
  current_motor: 9.81
  current_input: 0.92
  current_q: 9.2
  speed: 4998.0
  duty_cycle: 0.092
  charge_drawn: 84.0
  charge_regen: 0.0
  energy_drawn: 0.0
  energy_regen: 0.0
  displacement: 4127.0
  distance_traveled: 10489.0
  fault_code: 0
---
header: 
  seq: 174299
  stamp: 
    secs: 1625854263
    nsecs: 963943044
  frame_id: ''
state: 
  voltage_input: 11.7
  temperature_pcb: 0.0
  current_motor: 11.73
  current_input: 1.01
  current_q: 10.98
  speed: 5049.0
  duty_cycle: 0.058
  charge_drawn: 84.0
  charge_regen: 0.0
  energy_drawn: 0.0
  energy_regen: 0.0
  displacement: 4137.0
  distance_traveled: 10499.0
  fault_code: 0
---
header: 
  seq: 174300
  stamp: 
    secs: 1625854263
    nsecs: 983089695
  frame_id: ''
state: 
  voltage_input: 11.7
  temperature_pcb: 0.0
  current_motor: 12.61
  current_input: 1.21
  current_q: 13.08
  speed: 5021.0
  duty_cycle: 0.103
  charge_drawn: 84.0
  charge_regen: 0.0
  energy_drawn: 0.0
  energy_regen: 0.0
  displacement: 4147.0
  distance_traveled: 10509.0
  fault_code: 0
---
header: 
  seq: 174301
  stamp: 
    secs: 1625854264
    nsecs:   3966386
  frame_id: ''
state: 
  voltage_input: 11.6
  temperature_pcb: 0.0
  current_motor: 10.59
  current_input: 0.98
  current_q: 10.75
  speed: 4997.0
  duty_cycle: 0.112
  charge_drawn: 84.0
  charge_regen: 0.0
  energy_drawn: 0.0
  energy_regen: 0.0
  displacement: 4157.0
  distance_traveled: 10519.0
  fault_code: 0
---
header: 
  seq: 174302
  stamp: 
    secs: 1625854264
    nsecs:  23074285
  frame_id: ''
state: 
  voltage_input: 11.7
  temperature_pcb: 0.0
  current_motor: 12.5
  current_input: 1.04
  current_q: 11.27
  speed: 5049.0
  duty_cycle: 0.062
  charge_drawn: 84.0
  charge_regen: 0.0
  energy_drawn: 0.0
  energy_regen: 0.0
  displacement: 4167.0
  distance_traveled: 10529.0
  fault_code: 0
---
header: 
  seq: 174303
  stamp: 
    secs: 1625854264
    nsecs:  43059991
  frame_id: ''
state: 
  voltage_input: 11.6
  temperature_pcb: 0.0
  current_motor: 10.98
  current_input: 0.99
  current_q: 11.09
  speed: 5051.0
  duty_cycle: 0.084
  charge_drawn: 84.0
  charge_regen: 0.0
  energy_drawn: 0.0
  energy_regen: 0.0
  displacement: 4177.0
  distance_traveled: 10539.0
  fault_code: 0
---
header: 
  seq: 174304
  stamp: 
    secs: 1625854264
    nsecs:  64178257
  frame_id: ''
state: 
  voltage_input: 11.6
  temperature_pcb: 0.0
  current_motor: 7.4
  current_input: 0.68
  current_q: 7.33
  speed: 5069.0
  duty_cycle: 0.095
  charge_drawn: 84.0
  charge_regen: 0.0
  energy_drawn: 0.0
  energy_regen: 0.0
  displacement: 4188.0
  distance_traveled: 10550.0
  fault_code: 0
---
header: 
  seq: 174305
  stamp: 
    secs: 1625854264
    nsecs:  82851185
  frame_id: ''
state: 
  voltage_input: 11.7
  temperature_pcb: 0.0
  current_motor: 7.61
  current_input: 0.72
  current_q: 7.51
  speed: 5067.0
  duty_cycle: 0.111
  charge_drawn: 84.0
  charge_regen: 0.0
  energy_drawn: 0.0
  energy_regen: 0.0
  displacement: 4197.0
  distance_traveled: 10559.0
  fault_code: 0
---
header: 
  seq: 174306
  stamp: 
    secs: 1625854264
    nsecs: 102826370
  frame_id: ''
state: 
  voltage_input: 11.7
  temperature_pcb: 0.0
  current_motor: 9.14
  current_input: 0.8
  current_q: 8.59
  speed: 5064.0
  duty_cycle: 0.113
  charge_drawn: 84.0
  charge_regen: 0.0
  energy_drawn: 0.0
  energy_regen: 0.0
  displacement: 4208.0
  distance_traveled: 10570.0
  fault_code: 0
---
header: 
  seq: 174307
  stamp: 
    secs: 1625854264
    nsecs: 124279029
  frame_id: ''
state: 
  voltage_input: 11.7
  temperature_pcb: 0.0
  current_motor: 11.57
  current_input: 1.0
  current_q: 10.42
  speed: 5069.0
  duty_cycle: 0.078
  charge_drawn: 84.0
  charge_regen: 0.0
  energy_drawn: 0.0
  energy_regen: 0.0
  displacement: 4218.0
  distance_traveled: 10580.0
  fault_code: 0
---
header: 
  seq: 174308
  stamp: 
    secs: 1625854264
    nsecs: 143102069
  frame_id: ''
state: 
  voltage_input: 11.6
  temperature_pcb: 0.0
  current_motor: 15.64
  current_input: 1.46
  current_q: 15.27
  speed: 5079.0
  duty_cycle: 0.062
  charge_drawn: 85.0
  charge_regen: 0.0
  energy_drawn: 0.0
  energy_regen: 0.0
  displacement: 4228.0
  distance_traveled: 10590.0
  fault_code: 0
---
header: 
  seq: 174309
  stamp: 
    secs: 1625854264
    nsecs: 163879849
  frame_id: ''
state: 
  voltage_input: 11.7
  temperature_pcb: 0.0
  current_motor: 12.57
  current_input: 1.34
  current_q: 13.32
  speed: 5027.0
  duty_cycle: 0.11
  charge_drawn: 85.0
  charge_regen: 0.0
  energy_drawn: 0.0
  energy_regen: 0.0
  displacement: 4238.0
  distance_traveled: 10600.0
  fault_code: 0
---
header: 
  seq: 174310
  stamp: 
    secs: 1625854264
    nsecs: 182655021
  frame_id: ''
state: 
  voltage_input: 11.7
  temperature_pcb: 0.0
  current_motor: 9.12
  current_input: 0.86
  current_q: 8.98
  speed: 5021.0
  duty_cycle: 0.111
  charge_drawn: 85.0
  charge_regen: 0.0
  energy_drawn: 0.0
  energy_regen: 0.0
  displacement: 4248.0
  distance_traveled: 10610.0
  fault_code: 0
---
header: 
  seq: 174311
  stamp: 
    secs: 1625854264
    nsecs: 204278159
  frame_id: ''
state: 
  voltage_input: 11.7
  temperature_pcb: 0.0
  current_motor: 9.88
  current_input: 0.83
  current_q: 9.18
  speed: 5028.0
  duty_cycle: 0.103
  charge_drawn: 85.0
  charge_regen: 0.0
  energy_drawn: 0.0
  energy_regen: 0.0
  displacement: 4258.0
  distance_traveled: 10620.0
  fault_code: 0
---
header: 
  seq: 174312
  stamp: 
    secs: 1625854264
    nsecs: 223889991
  frame_id: ''
state: 
  voltage_input: 11.6
  temperature_pcb: 0.0
  current_motor: 11.67
  current_input: 0.98
  current_q: 10.59
  speed: 5066.0
  duty_cycle: 0.068
  charge_drawn: 85.0
  charge_regen: 0.0
  energy_drawn: 0.0
  energy_regen: 0.0
  displacement: 4268.0
  distance_traveled: 10630.0
  fault_code: 0
---
header: 
  seq: 174313
  stamp: 
    secs: 1625854264
    nsecs: 243953774
  frame_id: ''
state: 
  voltage_input: 11.6
  temperature_pcb: 0.0
  current_motor: 13.83
  current_input: 1.32
  current_q: 14.4
  speed: 5029.0
  duty_cycle: 0.11
  charge_drawn: 85.0
  charge_regen: 0.0
  energy_drawn: 0.0
  energy_regen: 0.0
  displacement: 4278.0
  distance_traveled: 10640.0
  fault_code: 0
---
header: 
  seq: 174314
  stamp: 
    secs: 1625854264
    nsecs: 264331063
  frame_id: ''
state: 
  voltage_input: 11.6
  temperature_pcb: 0.0
  current_motor: 10.44
  current_input: 0.94
  current_q: 10.17
  speed: 5014.0
  duty_cycle: 0.102
  charge_drawn: 85.0
  charge_regen: 0.0
  energy_drawn: 0.0
  energy_regen: 0.0
  displacement: 4288.0
  distance_traveled: 10650.0
  fault_code: 0
---
header: 
  seq: 174315
  stamp: 
    secs: 1625854264
    nsecs: 283513185
  frame_id: ''
state: 
  voltage_input: 11.7
  temperature_pcb: 0.0
  current_motor: 14.09
  current_input: 1.26
  current_q: 13.31
  speed: 5054.0
  duty_cycle: 0.058
  charge_drawn: 85.0
  charge_regen: 0.0
  energy_drawn: 0.0
  energy_regen: 0.0
  displacement: 4298.0
  distance_traveled: 10660.0
  fault_code: 0
---
header: 
  seq: 174316
  stamp: 
    secs: 1625854264
    nsecs: 302921985
  frame_id: ''
state: 
  voltage_input: 11.6
  temperature_pcb: 0.0
  current_motor: 11.44
  current_input: 1.04
  current_q: 11.33
  speed: 5061.0
  duty_cycle: 0.082
  charge_drawn: 85.0
  charge_regen: 0.0
  energy_drawn: 0.0
  energy_regen: 0.0
  displacement: 4308.0
  distance_traveled: 10670.0
  fault_code: 0
---
header: 
  seq: 174317
  stamp: 
    secs: 1625854264
    nsecs: 322969257
  frame_id: ''
state: 
  voltage_input: 11.6
  temperature_pcb: 0.0
  current_motor: 8.94
  current_input: 0.84
  current_q: 8.63
  speed: 5084.0
  duty_cycle: 0.081
  charge_drawn: 85.0
  charge_regen: 0.0
  energy_drawn: 0.0
  energy_regen: 0.0
  displacement: 4319.0
  distance_traveled: 10681.0
  fault_code: 0
---
header: 
  seq: 174318
  stamp: 
    secs: 1625854264
    nsecs: 342846363
  frame_id: ''
state: 
  voltage_input: 11.6
  temperature_pcb: 0.0
  current_motor: 7.64
  current_input: 0.75
  current_q: 7.62
  speed: 5078.0
  duty_cycle: 0.094
  charge_drawn: 85.0
  charge_regen: 0.0
  energy_drawn: 0.0
  energy_regen: 0.0
  displacement: 4329.0
  distance_traveled: 10691.0
  fault_code: 0
---
header: 
  seq: 174319
  stamp: 
    secs: 1625854264
    nsecs: 364176673
  frame_id: ''
state: 
  voltage_input: 11.6
  temperature_pcb: 0.0
  current_motor: 8.21
  current_input: 0.81
  current_q: 8.51
  speed: 5055.0
  duty_cycle: 0.113
  charge_drawn: 85.0
  charge_regen: 0.0
  energy_drawn: 0.0
  energy_regen: 0.0
  displacement: 4339.0
  distance_traveled: 10701.0
  fault_code: 0
---
header: 
  seq: 174320
  stamp: 
    secs: 1625854264
    nsecs: 382323166
  frame_id: ''
state: 
  voltage_input: 11.6
  temperature_pcb: 0.0
  current_motor: 11.13
  current_input: 1.01
  current_q: 10.05
  speed: 5057.0
  duty_cycle: 0.086
  charge_drawn: 85.0
  charge_regen: 0.0
  energy_drawn: 0.0
  energy_regen: 0.0
  displacement: 4349.0
  distance_traveled: 10711.0
  fault_code: 0
---
header: 
  seq: 174321
  stamp: 
    secs: 1625854264
    nsecs: 402733009
  frame_id: ''
state: 
  voltage_input: 11.7
  temperature_pcb: 0.0
  current_motor: 15.92
  current_input: 1.49
  current_q: 15.59
  speed: 5075.0
  duty_cycle: 0.069
  charge_drawn: 85.0
  charge_regen: 0.0
  energy_drawn: 0.0
  energy_regen: 0.0
  displacement: 4359.0
  distance_traveled: 10721.0
  fault_code: 0
---
header: 
  seq: 174322
  stamp: 
    secs: 1625854264
    nsecs: 423579178
  frame_id: ''
state: 
  voltage_input: 11.7
  temperature_pcb: 0.0
  current_motor: 11.96
  current_input: 1.19
  current_q: 12.65
  speed: 5026.0
  duty_cycle: 0.111
  charge_drawn: 85.0
  charge_regen: 0.0
  energy_drawn: 0.0
  energy_regen: 0.0
  displacement: 4369.0
  distance_traveled: 10731.0
  fault_code: 0
---
header: 
  seq: 174323
  stamp: 
    secs: 1625854264
    nsecs: 443894797
  frame_id: ''
state: 
  voltage_input: 11.6
  temperature_pcb: 0.0
  current_motor: 8.84
  current_input: 0.78
  current_q: 8.62
  speed: 5026.0
  duty_cycle: 0.106
  charge_drawn: 85.0
  charge_regen: 0.0
  energy_drawn: 0.0
  energy_regen: 0.0
  displacement: 4379.0
  distance_traveled: 10741.0
  fault_code: 0
---
header: 
  seq: 174324
  stamp: 
    secs: 1625854264
    nsecs: 464282087
  frame_id: ''
state: 
  voltage_input: 11.6
  temperature_pcb: 0.0
  current_motor: 9.91
  current_input: 0.86
  current_q: 9.16
  speed: 5060.0
  duty_cycle: 0.079
  charge_drawn: 85.0
  charge_regen: 0.0
  energy_drawn: 0.0
  energy_regen: 0.0
  displacement: 4389.0
  distance_traveled: 10751.0
  fault_code: 0
---
header: 
  seq: 174325
  stamp: 
    secs: 1625854264
    nsecs: 482810320
  frame_id: ''
state: 
  voltage_input: 11.6
  temperature_pcb: 0.0
  current_motor: 11.55
  current_input: 1.02
  current_q: 11.42
  speed: 5088.0
  duty_cycle: 0.07
  charge_drawn: 85.0
  charge_regen: 0.0
  energy_drawn: 0.0
  energy_regen: 0.0
  displacement: 4400.0
  distance_traveled: 10762.0
  fault_code: 0
---
header: 
  seq: 174326
  stamp: 
    secs: 1625854264
    nsecs: 504064948
  frame_id: ''
state: 
  voltage_input: 11.6
  temperature_pcb: 0.0
  current_motor: 12.58
  current_input: 1.2
  current_q: 12.78
  speed: 5055.0
  duty_cycle: 0.097
  charge_drawn: 86.0
  charge_regen: 0.0
  energy_drawn: 0.0
  energy_regen: 0.0
  displacement: 4410.0
  distance_traveled: 10772.0
  fault_code: 0
---
header: 
  seq: 174327
  stamp: 
    secs: 1625854264
    nsecs: 522793660
  frame_id: ''
state: 
  voltage_input: 11.7
  temperature_pcb: 0.0
  current_motor: 10.72
  current_input: 0.96
  current_q: 10.5
  speed: 5021.0
  duty_cycle: 0.117
  charge_drawn: 86.0
  charge_regen: 0.0
  energy_drawn: 0.0
  energy_regen: 0.0
  displacement: 4419.0
  distance_traveled: 10781.0
  fault_code: 0
---
header: 
  seq: 174328
  stamp: 
    secs: 1625854264
    nsecs: 543210795
  frame_id: ''
state: 
  voltage_input: 11.7
  temperature_pcb: 0.0
  current_motor: 10.65
  current_input: 0.96
  current_q: 10.11
  speed: 5027.0
  duty_cycle: 0.093
  charge_drawn: 86.0
  charge_regen: 0.0
  energy_drawn: 0.0
  energy_regen: 0.0
  displacement: 4430.0
  distance_traveled: 10792.0
  fault_code: 0
---
header: 
  seq: 174329
  stamp: 
    secs: 1625854264
    nsecs: 562955394
  frame_id: ''
state: 
  voltage_input: 11.6
  temperature_pcb: 0.0
  current_motor: 10.95
  current_input: 0.97
  current_q: 9.94
  speed: 5073.0
  duty_cycle: 0.054
  charge_drawn: 86.0
  charge_regen: 0.0
  energy_drawn: 0.0
  energy_regen: 0.0
  displacement: 4440.0
  distance_traveled: 10802.0
  fault_code: 0
---
header: 
  seq: 174330
  stamp: 
    secs: 1625854264
    nsecs: 585253412
  frame_id: ''
state: 
  voltage_input: 11.7
  temperature_pcb: 0.0
  current_motor: 7.48
  current_input: 0.73
  current_q: 7.24
  speed: 5083.0
  duty_cycle: 0.06
  charge_drawn: 86.0
  charge_regen: 0.0
  energy_drawn: 0.0
  energy_regen: 0.0
  displacement: 4451.0
  distance_traveled: 10813.0
  fault_code: 0
---
header: 
  seq: 174331
  stamp: 
    secs: 1625854264
    nsecs: 604909777
  frame_id: ''
state: 
  voltage_input: 11.6
  temperature_pcb: 0.0
  current_motor: 8.93
  current_input: 0.85
  current_q: 8.51
  speed: 5118.0
  duty_cycle: 0.06
  charge_drawn: 86.0
  charge_regen: 0.0
  energy_drawn: 0.0
  energy_regen: 0.0
  displacement: 4461.0
  distance_traveled: 10823.0
  fault_code: 0
---
header: 
  seq: 174332
  stamp: 
    secs: 1625854264
    nsecs: 622869802
  frame_id: ''
state: 
  voltage_input: 11.6
  temperature_pcb: 0.0
  current_motor: 8.52
  current_input: 0.84
  current_q: 9.03
  speed: 5100.0
  duty_cycle: 0.094
  charge_drawn: 86.0
  charge_regen: 0.0
  energy_drawn: 0.0
  energy_regen: 0.0
  displacement: 4471.0
  distance_traveled: 10833.0
  fault_code: 0
---
header: 
  seq: 174333
  stamp: 
    secs: 1625854264
    nsecs: 643209433
  frame_id: ''
state: 
  voltage_input: 11.7
  temperature_pcb: 0.0
  current_motor: 8.11
  current_input: 0.75
  current_q: 8.34
  speed: 5077.0
  duty_cycle: 0.108
  charge_drawn: 86.0
  charge_regen: 0.0
  energy_drawn: 0.0
  energy_regen: 0.0
  displacement: 4481.0
  distance_traveled: 10843.0
  fault_code: 0
---
header: 
  seq: 174334
  stamp: 
    secs: 1625854264
    nsecs: 662927417
  frame_id: ''
state: 
  voltage_input: 11.7
  temperature_pcb: 0.0
  current_motor: 10.89
  current_input: 0.88
  current_q: 9.71
  speed: 5112.0
  duty_cycle: 0.064
  charge_drawn: 86.0
  charge_regen: 0.0
  energy_drawn: 0.0
  energy_regen: 0.0
  displacement: 4491.0
  distance_traveled: 10853.0
  fault_code: 0
---
header: 
  seq: 174335
  stamp: 
    secs: 1625854264
    nsecs: 682843432
  frame_id: ''
state: 
  voltage_input: 11.6
  temperature_pcb: 0.0
  current_motor: 10.97
  current_input: 1.0
  current_q: 11.08
  speed: 5108.0
  duty_cycle: 0.084
  charge_drawn: 86.0
  charge_regen: 0.0
  energy_drawn: 0.0
  energy_regen: 0.0
  displacement: 4501.0
  distance_traveled: 10863.0
  fault_code: 0
---
header: 
  seq: 174336
  stamp: 
    secs: 1625854264
    nsecs: 703701632
  frame_id: ''
state: 
  voltage_input: 11.6
  temperature_pcb: 0.0
  current_motor: 7.22
  current_input: 0.67
  current_q: 7.41
  speed: 5092.0
  duty_cycle: 0.107
  charge_drawn: 86.0
  charge_regen: 0.0
  energy_drawn: 0.0
  energy_regen: 0.0
  displacement: 4511.0
  distance_traveled: 10873.0
  fault_code: 0
---
header: 
  seq: 174337
  stamp: 
    secs: 1625854264
    nsecs: 723003812
  frame_id: ''
state: 
  voltage_input: 11.7
  temperature_pcb: 0.0
  current_motor: 6.94
  current_input: 0.58
  current_q: 6.59
  speed: 5101.0
  duty_cycle: 0.093
  charge_drawn: 86.0
  charge_regen: 0.0
  energy_drawn: 0.0
  energy_regen: 0.0
  displacement: 4522.0
  distance_traveled: 10884.0
  fault_code: 0
---
header: 
  seq: 174338
  stamp: 
    secs: 1625854264
    nsecs: 743601999
  frame_id: ''
state: 
  voltage_input: 11.7
  temperature_pcb: 0.0
  current_motor: 9.71
  current_input: 0.8
  current_q: 8.9
  speed: 5126.0
  duty_cycle: 0.072
  charge_drawn: 86.0
  charge_regen: 0.0
  energy_drawn: 0.0
  energy_regen: 0.0
  displacement: 4532.0
  distance_traveled: 10894.0
  fault_code: 0
---
header: 
  seq: 174339
  stamp: 
    secs: 1625854264
    nsecs: 762900116
  frame_id: ''
state: 
  voltage_input: 11.6
  temperature_pcb: 0.0
  current_motor: 11.99
  current_input: 1.12
  current_q: 12.37
  speed: 5112.0
  duty_cycle: 0.092
  charge_drawn: 86.0
  charge_regen: 0.0
  energy_drawn: 0.0
  energy_regen: 0.0
  displacement: 4542.0
  distance_traveled: 10904.0
  fault_code: 0
---
header: 
  seq: 174340
  stamp: 
    secs: 1625854264
    nsecs: 782791546
  frame_id: ''
state: 
  voltage_input: 11.6
  temperature_pcb: 0.0
  current_motor: 9.47
  current_input: 0.87
  current_q: 9.78
  speed: 5071.0
  duty_cycle: 0.109
  charge_drawn: 86.0
  charge_regen: 0.0
  energy_drawn: 0.0
  energy_regen: 0.0
  displacement: 4552.0
  distance_traveled: 10914.0
  fault_code: 0
---
header: 
  seq: 174341
  stamp: 
    secs: 1625854264
    nsecs: 802774440
