header: 
  seq: 100658
  stamp: 
    secs: 1626108267
    nsecs: 935897832
  frame_id: ''
state: 
  voltage_input: 11.5
  temperature_pcb: 0.0
  current_motor: 0.0
  current_input: 0.0
  current_q: 0.0
  speed: 1.0
  duty_cycle: 0.0
  charge_drawn: 178.0
  charge_regen: 0.0
  energy_drawn: 0.0
  energy_regen: 0.0
  displacement: 2187.0
  distance_traveled: 14881.0
  fault_code: 0
---
header: 
  seq: 100659
  stamp: 
    secs: 1626108267
    nsecs: 955807390
  frame_id: ''
state: 
  voltage_input: 11.5
  temperature_pcb: 0.0
  current_motor: 0.0
  current_input: 0.0
  current_q: 0.0
  speed: 0.0
  duty_cycle: 0.0
  charge_drawn: 178.0
  charge_regen: 0.0
  energy_drawn: 0.0
  energy_regen: 0.0
  displacement: 2187.0
  distance_traveled: 14881.0
  fault_code: 0
---
header: 
  seq: 100660
  stamp: 
    secs: 1626108267
    nsecs: 976112297
  frame_id: ''
state: 
  voltage_input: 11.5
  temperature_pcb: 0.0
  current_motor: 0.0
  current_input: 0.0
  current_q: 0.0
  speed: 1.0
  duty_cycle: 0.0
  charge_drawn: 178.0
  charge_regen: 0.0
  energy_drawn: 0.0
  energy_regen: 0.0
  displacement: 2187.0
  distance_traveled: 14881.0
  fault_code: 0
---
header: 
  seq: 100661
  stamp: 
    secs: 1626108267
    nsecs: 995969245
  frame_id: ''
state: 
  voltage_input: 11.5
  temperature_pcb: 0.0
  current_motor: 0.0
  current_input: 0.0
  current_q: 0.0
  speed: 0.0
  duty_cycle: 0.0
  charge_drawn: 178.0
  charge_regen: 0.0
  energy_drawn: 0.0
  energy_regen: 0.0
  displacement: 2187.0
  distance_traveled: 14881.0
  fault_code: 0
---
header: 
  seq: 100662
  stamp: 
    secs: 1626108268
    nsecs:  16110171
  frame_id: ''
state: 
  voltage_input: 11.5
  temperature_pcb: 0.0
  current_motor: 0.0
  current_input: 0.0
  current_q: 0.0
  speed: 0.0
  duty_cycle: 0.0
  charge_drawn: 178.0
  charge_regen: 0.0
  energy_drawn: 0.0
  energy_regen: 0.0
  displacement: 2187.0
  distance_traveled: 14881.0
  fault_code: 0
---
header: 
  seq: 100663
  stamp: 
    secs: 1626108268
    nsecs:  35881425
  frame_id: ''
state: 
  voltage_input: 11.6
  temperature_pcb: 0.0
  current_motor: 0.0
  current_input: 0.0
  current_q: 0.0
  speed: 0.0
  duty_cycle: 0.0
  charge_drawn: 178.0
  charge_regen: 0.0
  energy_drawn: 0.0
  energy_regen: 0.0
  displacement: 2187.0
  distance_traveled: 14881.0
  fault_code: 0
---
header: 
  seq: 100664
  stamp: 
    secs: 1626108268
    nsecs:  55961823
  frame_id: ''
state: 
  voltage_input: 11.5
  temperature_pcb: 0.0
  current_motor: 0.0
  current_input: 0.0
  current_q: 0.0
  speed: 0.0
  duty_cycle: 0.0
  charge_drawn: 178.0
  charge_regen: 0.0
  energy_drawn: 0.0
  energy_regen: 0.0
  displacement: 2187.0
  distance_traveled: 14881.0
  fault_code: 0
---
header: 
  seq: 100665
  stamp: 
    secs: 1626108268
    nsecs:  75903561
  frame_id: ''
state: 
  voltage_input: 11.5
  temperature_pcb: 0.0
  current_motor: 0.0
  current_input: 0.0
  current_q: 0.0
  speed: 0.0
  duty_cycle: -0.001
  charge_drawn: 178.0
  charge_regen: 0.0
  energy_drawn: 0.0
  energy_regen: 0.0
  displacement: 2187.0
  distance_traveled: 14881.0
  fault_code: 0
---
header: 
  seq: 100666
  stamp: 
    secs: 1626108268
    nsecs:  96015107
  frame_id: ''
state: 
  voltage_input: 11.5
  temperature_pcb: 0.0
  current_motor: 0.0
  current_input: 0.0
  current_q: 0.0
  speed: 0.0
  duty_cycle: 0.0
  charge_drawn: 178.0
  charge_regen: 0.0
  energy_drawn: 0.0
  energy_regen: 0.0
  displacement: 2187.0
  distance_traveled: 14881.0
  fault_code: 0
---
header: 
  seq: 100667
  stamp: 
    secs: 1626108268
    nsecs: 115971586
  frame_id: ''
state: 
  voltage_input: 11.5
  temperature_pcb: 0.0
  current_motor: 0.0
  current_input: 0.0
  current_q: 0.0
  speed: 1.0
  duty_cycle: 0.0
  charge_drawn: 178.0
  charge_regen: 0.0
  energy_drawn: 0.0
  energy_regen: 0.0
  displacement: 2187.0
  distance_traveled: 14881.0
  fault_code: 0
---
header: 
  seq: 100668
  stamp: 
    secs: 1626108268
    nsecs: 135901605
  frame_id: ''
state: 
  voltage_input: 11.5
  temperature_pcb: 0.0
  current_motor: 0.0
  current_input: 0.0
  current_q: 0.0
  speed: 1.0
  duty_cycle: 0.0
  charge_drawn: 178.0
  charge_regen: 0.0
  energy_drawn: 0.0
  energy_regen: 0.0
  displacement: 2187.0
  distance_traveled: 14881.0
  fault_code: 0
---
header: 
  seq: 100669
  stamp: 
    secs: 1626108268
    nsecs: 156002264
  frame_id: ''
state: 
  voltage_input: 11.4
  temperature_pcb: 0.0
  current_motor: 0.0
  current_input: 0.0
  current_q: 0.0
  speed: 1.0
  duty_cycle: 0.0
  charge_drawn: 178.0
  charge_regen: 0.0
  energy_drawn: 0.0
  energy_regen: 0.0
  displacement: 2187.0
  distance_traveled: 14881.0
  fault_code: 0
---
header: 
  seq: 100670
  stamp: 
    secs: 1626108268
    nsecs: 175830763
  frame_id: ''
state: 
  voltage_input: 11.5
  temperature_pcb: 0.0
  current_motor: 0.0
  current_input: 0.0
  current_q: 0.0
  speed: 1.0
  duty_cycle: 0.0
  charge_drawn: 178.0
  charge_regen: 0.0
  energy_drawn: 0.0
  energy_regen: 0.0
  displacement: 2187.0
  distance_traveled: 14881.0
  fault_code: 0
---
header: 
  seq: 100671
  stamp: 
    secs: 1626108268
    nsecs: 195942309
  frame_id: ''
state: 
  voltage_input: 11.4
  temperature_pcb: 0.0
  current_motor: 0.0
  current_input: 0.0
  current_q: 0.0
  speed: 1.0
  duty_cycle: 0.0
  charge_drawn: 178.0
  charge_regen: 0.0
  energy_drawn: 0.0
  energy_regen: 0.0
  displacement: 2187.0
  distance_traveled: 14881.0
  fault_code: 0
---
header: 
  seq: 100672
  stamp: 
    secs: 1626108268
    nsecs: 215950981
  frame_id: ''
state: 
  voltage_input: 11.5
  temperature_pcb: 0.0
  current_motor: 0.0
  current_input: 0.0
  current_q: 0.0
  speed: 0.0
  duty_cycle: -0.001
  charge_drawn: 178.0
  charge_regen: 0.0
  energy_drawn: 0.0
  energy_regen: 0.0
  displacement: 2187.0
  distance_traveled: 14881.0
  fault_code: 0
---
header: 
  seq: 100673
  stamp: 
    secs: 1626108268
    nsecs: 235842506
  frame_id: ''
state: 
  voltage_input: 11.5
  temperature_pcb: 0.0
  current_motor: 0.0
  current_input: 0.0
  current_q: 0.0
  speed: 1.0
  duty_cycle: 0.0
  charge_drawn: 178.0
  charge_regen: 0.0
  energy_drawn: 0.0
  energy_regen: 0.0
  displacement: 2187.0
  distance_traveled: 14881.0
  fault_code: 0
---
header: 
  seq: 100674
  stamp: 
    secs: 1626108268
    nsecs: 255842375
  frame_id: ''
state: 
  voltage_input: 11.5
  temperature_pcb: 0.0
  current_motor: 0.0
  current_input: 0.0
  current_q: 0.0
  speed: 1.0
  duty_cycle: -0.001
  charge_drawn: 178.0
  charge_regen: 0.0
  energy_drawn: 0.0
  energy_regen: 0.0
  displacement: 2187.0
  distance_traveled: 14881.0
  fault_code: 0
---
header: 
  seq: 100675
  stamp: 
    secs: 1626108268
    nsecs: 275879696
  frame_id: ''
state: 
  voltage_input: 11.5
  temperature_pcb: 0.0
  current_motor: 0.0
  current_input: 0.0
  current_q: 0.0
  speed: 0.0
  duty_cycle: 0.0
  charge_drawn: 178.0
  charge_regen: 0.0
  energy_drawn: 0.0
  energy_regen: 0.0
  displacement: 2187.0
  distance_traveled: 14881.0
  fault_code: 0
---
header: 
  seq: 100676
  stamp: 
    secs: 1626108268
    nsecs: 299296495
  frame_id: ''
state: 
  voltage_input: 11.4
  temperature_pcb: 0.0
  current_motor: 0.0
  current_input: 0.0
  current_q: 0.0
  speed: 0.0
  duty_cycle: 0.0
  charge_drawn: 178.0
  charge_regen: 0.0
  energy_drawn: 0.0
  energy_regen: 0.0
  displacement: 2187.0
  distance_traveled: 14881.0
  fault_code: 0
---
header: 
  seq: 100677
  stamp: 
    secs: 1626108268
    nsecs: 315871724
  frame_id: ''
state: 
  voltage_input: 11.5
  temperature_pcb: 0.0
  current_motor: 0.0
  current_input: 0.0
  current_q: 0.0
  speed: -1.0
  duty_cycle: 0.0
  charge_drawn: 178.0
  charge_regen: 0.0
  energy_drawn: 0.0
  energy_regen: 0.0
  displacement: 2187.0
  distance_traveled: 14881.0
  fault_code: 0
---
header: 
  seq: 100678
  stamp: 
    secs: 1626108268
    nsecs: 335855602
  frame_id: ''
state: 
  voltage_input: 11.5
  temperature_pcb: 0.0
  current_motor: 0.0
  current_input: 0.0
  current_q: 0.0
  speed: -2.0
  duty_cycle: 0.0
  charge_drawn: 178.0
  charge_regen: 0.0
  energy_drawn: 0.0
  energy_regen: 0.0
  displacement: 2187.0
  distance_traveled: 14881.0
  fault_code: 0
---
header: 
  seq: 100679
  stamp: 
    secs: 1626108268
    nsecs: 355989650
  frame_id: ''
state: 
  voltage_input: 11.5
  temperature_pcb: 0.0
  current_motor: 0.0
  current_input: 0.0
  current_q: 0.0
  speed: -1.0
  duty_cycle: 0.0
  charge_drawn: 178.0
  charge_regen: 0.0
  energy_drawn: 0.0
  energy_regen: 0.0
  displacement: 2187.0
  distance_traveled: 14881.0
  fault_code: 0
---
header: 
  seq: 100680
  stamp: 
    secs: 1626108268
    nsecs: 376040201
  frame_id: ''
state: 
  voltage_input: 11.5
  temperature_pcb: 0.0
  current_motor: 0.0
  current_input: 0.0
  current_q: 0.0
  speed: -1.0
  duty_cycle: 0.0
  charge_drawn: 178.0
  charge_regen: 0.0
  energy_drawn: 0.0
  energy_regen: 0.0
  displacement: 2187.0
  distance_traveled: 14881.0
  fault_code: 0
---
header: 
  seq: 100681
  stamp: 
    secs: 1626108268
    nsecs: 396249360
  frame_id: ''
state: 
  voltage_input: 11.4
  temperature_pcb: 0.0
  current_motor: 0.0
  current_input: 0.0
  current_q: 0.0
  speed: 0.0
  duty_cycle: -0.001
  charge_drawn: 178.0
  charge_regen: 0.0
  energy_drawn: 0.0
  energy_regen: 0.0
  displacement: 2187.0
  distance_traveled: 14881.0
  fault_code: 0
---
header: 
  seq: 100682
  stamp: 
    secs: 1626108268
    nsecs: 415935658
  frame_id: ''
state: 
  voltage_input: 11.4
  temperature_pcb: 0.0
  current_motor: 0.0
  current_input: 0.0
  current_q: 0.0
  speed: 0.0
  duty_cycle: 0.0
  charge_drawn: 178.0
  charge_regen: 0.0
  energy_drawn: 0.0
  energy_regen: 0.0
  displacement: 2187.0
  distance_traveled: 14881.0
  fault_code: 0
---
header: 
  seq: 100683
  stamp: 
    secs: 1626108268
    nsecs: 435861822
  frame_id: ''
state: 
  voltage_input: 11.5
  temperature_pcb: 0.0
  current_motor: 0.0
  current_input: 0.0
  current_q: 0.0
  speed: 0.0
  duty_cycle: 0.0
  charge_drawn: 178.0
  charge_regen: 0.0
  energy_drawn: 0.0
  energy_regen: 0.0
  displacement: 2187.0
  distance_traveled: 14881.0
  fault_code: 0
---
header: 
  seq: 100684
  stamp: 
    secs: 1626108268
    nsecs: 456219953
  frame_id: ''
state: 
  voltage_input: 11.5
  temperature_pcb: 0.0
  current_motor: 0.0
  current_input: 0.0
  current_q: 0.0
  speed: 0.0
  duty_cycle: 0.0
  charge_drawn: 178.0
  charge_regen: 0.0
  energy_drawn: 0.0
  energy_regen: 0.0
  displacement: 2187.0
  distance_traveled: 14881.0
  fault_code: 0
---
header: 
  seq: 100685
  stamp: 
    secs: 1626108268
    nsecs: 475904428
  frame_id: ''
state: 
  voltage_input: 11.5
  temperature_pcb: 0.0
  current_motor: 0.0
  current_input: 0.0
  current_q: 0.0
  speed: 0.0
  duty_cycle: 0.0
  charge_drawn: 178.0
  charge_regen: 0.0
  energy_drawn: 0.0
  energy_regen: 0.0
  displacement: 2187.0
  distance_traveled: 14881.0
  fault_code: 0
---
header: 
  seq: 100686
  stamp: 
    secs: 1626108268
    nsecs: 496006077
  frame_id: ''
state: 
  voltage_input: 11.5
  temperature_pcb: 0.0
  current_motor: 0.0
  current_input: 0.0
  current_q: 0.0
  speed: 0.0
  duty_cycle: -0.001
  charge_drawn: 178.0
  charge_regen: 0.0
  energy_drawn: 0.0
  energy_regen: 0.0
  displacement: 2187.0
  distance_traveled: 14881.0
  fault_code: 0
---
header: 
  seq: 100687
  stamp: 
    secs: 1626108268
    nsecs: 515914375
  frame_id: ''
state: 
  voltage_input: 11.5
  temperature_pcb: 0.0
  current_motor: 0.0
  current_input: 0.0
  current_q: 0.0
  speed: 0.0
  duty_cycle: 0.0
  charge_drawn: 178.0
  charge_regen: 0.0
  energy_drawn: 0.0
  energy_regen: 0.0
  displacement: 2187.0
  distance_traveled: 14881.0
  fault_code: 0
---
header: 
  seq: 100688
  stamp: 
    secs: 1626108268
    nsecs: 535979354
  frame_id: ''
state: 
  voltage_input: 11.4
  temperature_pcb: 0.0
  current_motor: 0.0
  current_input: 0.0
  current_q: 0.0
  speed: 0.0
  duty_cycle: 0.0
  charge_drawn: 178.0
  charge_regen: 0.0
  energy_drawn: 0.0
  energy_regen: 0.0
  displacement: 2187.0
  distance_traveled: 14881.0
  fault_code: 0
---
header: 
  seq: 100689
  stamp: 
    secs: 1626108268
    nsecs: 555908696
  frame_id: ''
state: 
  voltage_input: 11.5
  temperature_pcb: 0.0
  current_motor: 0.0
  current_input: 0.0
  current_q: 0.0
  speed: 0.0
  duty_cycle: 0.0
  charge_drawn: 178.0
  charge_regen: 0.0
  energy_drawn: 0.0
  energy_regen: 0.0
  displacement: 2187.0
  distance_traveled: 14881.0
  fault_code: 0
---
header: 
  seq: 100690
  stamp: 
    secs: 1626108268
    nsecs: 575911013
  frame_id: ''
state: 
  voltage_input: 11.5
  temperature_pcb: 0.0
  current_motor: 0.0
  current_input: 0.0
  current_q: 0.0
  speed: 0.0
  duty_cycle: 0.0
  charge_drawn: 178.0
  charge_regen: 0.0
  energy_drawn: 0.0
  energy_regen: 0.0
  displacement: 2187.0
  distance_traveled: 14881.0
  fault_code: 0
---
header: 
  seq: 100691
  stamp: 
    secs: 1626108268
    nsecs: 595942551
  frame_id: ''
state: 
  voltage_input: 11.5
  temperature_pcb: 0.0
  current_motor: 0.0
  current_input: 0.0
  current_q: 0.0
  speed: 0.0
  duty_cycle: 0.0
  charge_drawn: 178.0
  charge_regen: 0.0
  energy_drawn: 0.0
  energy_regen: 0.0
  displacement: 2187.0
  distance_traveled: 14881.0
  fault_code: 0
---
header: 
  seq: 100692
  stamp: 
    secs: 1626108268
    nsecs: 615967527
  frame_id: ''
state: 
  voltage_input: 11.4
  temperature_pcb: 0.0
  current_motor: 0.0
  current_input: 0.0
  current_q: 0.0
  speed: 0.0
  duty_cycle: 0.0
  charge_drawn: 178.0
  charge_regen: 0.0
  energy_drawn: 0.0
  energy_regen: 0.0
  displacement: 2187.0
  distance_traveled: 14881.0
  fault_code: 0
---
header: 
  seq: 100693
  stamp: 
    secs: 1626108268
    nsecs: 636039069
  frame_id: ''
state: 
  voltage_input: 11.4
  temperature_pcb: 0.0
  current_motor: 0.0
  current_input: 0.0
  current_q: 0.0
  speed: 0.0
  duty_cycle: 0.0
  charge_drawn: 178.0
  charge_regen: 0.0
  energy_drawn: 0.0
  energy_regen: 0.0
  displacement: 2187.0
  distance_traveled: 14881.0
  fault_code: 0
---
header: 
  seq: 100694
  stamp: 
    secs: 1626108268
    nsecs: 655904915
  frame_id: ''
state: 
  voltage_input: 11.5
  temperature_pcb: 0.0
  current_motor: 0.0
  current_input: 0.0
  current_q: 0.0
  speed: 0.0
  duty_cycle: 0.0
  charge_drawn: 178.0
  charge_regen: 0.0
  energy_drawn: 0.0
  energy_regen: 0.0
  displacement: 2187.0
  distance_traveled: 14881.0
  fault_code: 0
---
header: 
  seq: 100695
  stamp: 
    secs: 1626108268
    nsecs: 675882698
  frame_id: ''
state: 
  voltage_input: 11.5
  temperature_pcb: 0.0
  current_motor: 0.0
  current_input: 0.0
  current_q: 0.0
  speed: -1.0
  duty_cycle: 0.0
  charge_drawn: 178.0
  charge_regen: 0.0
  energy_drawn: 0.0
  energy_regen: 0.0
  displacement: 2187.0
  distance_traveled: 14881.0
  fault_code: 0
---
header: 
  seq: 100696
  stamp: 
    secs: 1626108268
    nsecs: 696186293
  frame_id: ''
state: 
  voltage_input: 11.5
  temperature_pcb: 0.0
  current_motor: 0.0
  current_input: 0.0
  current_q: 0.0
  speed: -2.0
  duty_cycle: 0.0
  charge_drawn: 178.0
  charge_regen: 0.0
  energy_drawn: 0.0
  energy_regen: 0.0
  displacement: 2187.0
  distance_traveled: 14881.0
  fault_code: 0
---
header: 
  seq: 100697
  stamp: 
    secs: 1626108268
    nsecs: 715886864
  frame_id: ''
state: 
  voltage_input: 11.4
  temperature_pcb: 0.0
  current_motor: 0.0
  current_input: 0.0
  current_q: 0.0
  speed: -1.0
  duty_cycle: 0.0
  charge_drawn: 178.0
  charge_regen: 0.0
  energy_drawn: 0.0
  energy_regen: 0.0
  displacement: 2187.0
  distance_traveled: 14881.0
  fault_code: 0
---
header: 
  seq: 100698
  stamp: 
    secs: 1626108268
    nsecs: 737517977
  frame_id: ''
state: 
  voltage_input: 11.4
  temperature_pcb: 0.0
  current_motor: 0.0
  current_input: 0.0
  current_q: 0.0
  speed: 0.0
  duty_cycle: 0.0
  charge_drawn: 178.0
  charge_regen: 0.0
  energy_drawn: 0.0
  energy_regen: 0.0
  displacement: 2187.0
  distance_traveled: 14881.0
  fault_code: 0
---
header: 
  seq: 100699
  stamp: 
    secs: 1626108268
    nsecs: 759206023
  frame_id: ''
state: 
  voltage_input: 11.5
  temperature_pcb: 0.0
  current_motor: 0.0
  current_input: 0.0
  current_q: 0.0
  speed: 0.0
  duty_cycle: 0.0
  charge_drawn: 178.0
  charge_regen: 0.0
  energy_drawn: 0.0
  energy_regen: 0.0
  displacement: 2187.0
  distance_traveled: 14881.0
  fault_code: 0
---
header: 
  seq: 100700
  stamp: 
    secs: 1626108268
    nsecs: 776289476
  frame_id: ''
state: 
  voltage_input: 11.5
  temperature_pcb: 0.0
  current_motor: 0.0
  current_input: 0.0
  current_q: 0.0
  speed: 1.0
  duty_cycle: 0.0
  charge_drawn: 178.0
  charge_regen: 0.0
  energy_drawn: 0.0
  energy_regen: 0.0
  displacement: 2187.0
  distance_traveled: 14881.0
  fault_code: 0
---
header: 
  seq: 100701
  stamp: 
    secs: 1626108268
    nsecs: 796129174
  frame_id: ''
state: 
  voltage_input: 11.5
  temperature_pcb: 0.0
  current_motor: 0.0
  current_input: 0.0
  current_q: 0.0
  speed: 0.0
  duty_cycle: -0.001
  charge_drawn: 178.0
  charge_regen: 0.0
  energy_drawn: 0.0
  energy_regen: 0.0
  displacement: 2187.0
  distance_traveled: 14881.0
  fault_code: 0
---
header: 
  seq: 100702
  stamp: 
    secs: 1626108268
    nsecs: 818089068
  frame_id: ''
state: 
  voltage_input: 11.5
  temperature_pcb: 0.0
  current_motor: 0.0
  current_input: 0.0
  current_q: 0.0
  speed: 0.0
  duty_cycle: 0.0
  charge_drawn: 178.0
  charge_regen: 0.0
  energy_drawn: 0.0
  energy_regen: 0.0
  displacement: 2187.0
  distance_traveled: 14881.0
  fault_code: 0
---
header: 
  seq: 100703
  stamp: 
    secs: 1626108268
    nsecs: 836027861
  frame_id: ''
state: 
  voltage_input: 11.5
  temperature_pcb: 0.0
  current_motor: 0.0
  current_input: 0.0
  current_q: 0.0
  speed: 0.0
  duty_cycle: 0.0
  charge_drawn: 178.0
  charge_regen: 0.0
  energy_drawn: 0.0
  energy_regen: 0.0
  displacement: 2187.0
  distance_traveled: 14881.0
  fault_code: 0
---
header: 
  seq: 100704
  stamp: 
    secs: 1626108268
    nsecs: 855823492
  frame_id: ''
state: 
  voltage_input: 11.5
  temperature_pcb: 0.0
  current_motor: 0.0
  current_input: 0.0
  current_q: 0.0
  speed: 0.0
  duty_cycle: 0.0
  charge_drawn: 178.0
  charge_regen: 0.0
  energy_drawn: 0.0
  energy_regen: 0.0
  displacement: 2187.0
  distance_traveled: 14881.0
  fault_code: 0
---
header: 
  seq: 100705
  stamp: 
    secs: 1626108268
    nsecs: 875860448
  frame_id: ''
state: 
  voltage_input: 11.5
  temperature_pcb: 0.0
  current_motor: 0.0
  current_input: 0.0
  current_q: 0.0
  speed: 0.0
  duty_cycle: 0.0
  charge_drawn: 178.0
  charge_regen: 0.0
  energy_drawn: 0.0
  energy_regen: 0.0
  displacement: 2187.0
  distance_traveled: 14881.0
  fault_code: 0
---
header: 
  seq: 100706
  stamp: 
    secs: 1626108268
    nsecs: 895909748
  frame_id: ''
state: 
  voltage_input: 11.5
  temperature_pcb: 0.0
  current_motor: 0.0
  current_input: 0.0
  current_q: 0.0
  speed: 0.0
  duty_cycle: 0.0
  charge_drawn: 178.0
  charge_regen: 0.0
  energy_drawn: 0.0
  energy_regen: 0.0
  displacement: 2187.0
  distance_traveled: 14881.0
  fault_code: 0
---
header: 
  seq: 100707
  stamp: 
    secs: 1626108268
    nsecs: 916098176
  frame_id: ''
state: 
  voltage_input: 11.6
  temperature_pcb: 0.0
  current_motor: 0.0
  current_input: 0.0
  current_q: 0.0
  speed: 0.0
  duty_cycle: 0.0
  charge_drawn: 178.0
  charge_regen: 0.0
  energy_drawn: 0.0
  energy_regen: 0.0
  displacement: 2187.0
  distance_traveled: 14881.0
  fault_code: 0
---
header: 
  seq: 100708
  stamp: 
    secs: 1626108268
    nsecs: 936197846
  frame_id: ''
state: 
  voltage_input: 11.5
  temperature_pcb: 0.0
  current_motor: 0.0
  current_input: 0.0
  current_q: 0.0
  speed: 0.0
  duty_cycle: 0.0
  charge_drawn: 178.0
  charge_regen: 0.0
  energy_drawn: 0.0
  energy_regen: 0.0
  displacement: 2187.0
  distance_traveled: 14881.0
  fault_code: 0
---
header: 
  seq: 100709
  stamp: 
    secs: 1626108268
    nsecs: 955785749
  frame_id: ''
state: 
  voltage_input: 11.5
  temperature_pcb: 0.0
  current_motor: 0.0
  current_input: 0.0
  current_q: 0.0
  speed: -1.0
  duty_cycle: 0.0
  charge_drawn: 178.0
  charge_regen: 0.0
  energy_drawn: 0.0
  energy_regen: 0.0
  displacement: 2187.0
  distance_traveled: 14881.0
  fault_code: 0
---
header: 
  seq: 100710
  stamp: 
    secs: 1626108268
    nsecs: 976036214
  frame_id: ''
state: 
  voltage_input: 11.5
  temperature_pcb: 0.0
  current_motor: 0.0
  current_input: 0.0
  current_q: 0.0
  speed: -1.0
  duty_cycle: 0.0
  charge_drawn: 178.0
  charge_regen: 0.0
  energy_drawn: 0.0
  energy_regen: 0.0
  displacement: 2187.0
  distance_traveled: 14881.0
  fault_code: 0
---
header: 
  seq: 100711
  stamp: 
    secs: 1626108268
    nsecs: 996830271
  frame_id: ''
state: 
  voltage_input: 11.4
  temperature_pcb: 0.0
  current_motor: 0.0
  current_input: 0.0
  current_q: 0.0
  speed: -4.0
  duty_cycle: 0.0
  charge_drawn: 178.0
  charge_regen: 0.0
  energy_drawn: 0.0
  energy_regen: 0.0
  displacement: 2187.0
  distance_traveled: 14881.0
  fault_code: 0
---
header: 
  seq: 100712
  stamp: 
    secs: 1626108269
    nsecs:  17233920
  frame_id: ''
state: 
  voltage_input: 11.5
  temperature_pcb: 0.0
  current_motor: 0.0
  current_input: 0.0
  current_q: 0.0
  speed: -4.0
  duty_cycle: 0.0
  charge_drawn: 178.0
  charge_regen: 0.0
  energy_drawn: 0.0
  energy_regen: 0.0
  displacement: 2187.0
  distance_traveled: 14881.0
  fault_code: 0
---
header: 
  seq: 100713
  stamp: 
    secs: 1626108269
    nsecs:  36269993
  frame_id: ''
state: 
  voltage_input: 11.5
  temperature_pcb: 0.0
  current_motor: 0.0
  current_input: 0.0
  current_q: 0.0
  speed: -5.0
  duty_cycle: 0.0
  charge_drawn: 178.0
  charge_regen: 0.0
  energy_drawn: 0.0
  energy_regen: 0.0
  displacement: 2187.0
  distance_traveled: 14881.0
  fault_code: 0
---
header: 
  seq: 100714
  stamp: 
    secs: 1626108269
    nsecs:  56300949
  frame_id: ''
state: 
  voltage_input: 11.5
  temperature_pcb: 0.0
  current_motor: 0.0
  current_input: 0.0
  current_q: 0.0
  speed: -3.0
  duty_cycle: 0.0
  charge_drawn: 178.0
  charge_regen: 0.0
  energy_drawn: 0.0
  energy_regen: 0.0
  displacement: 2187.0
  distance_traveled: 14881.0
  fault_code: 0
---
header: 
  seq: 100715
  stamp: 
    secs: 1626108269
    nsecs:  76817679
  frame_id: ''
state: 
  voltage_input: 11.4
  temperature_pcb: 0.0
  current_motor: 0.0
  current_input: 0.0
  current_q: 0.0
  speed: -1.0
  duty_cycle: 0.0
  charge_drawn: 178.0
  charge_regen: 0.0
  energy_drawn: 0.0
  energy_regen: 0.0
  displacement: 2187.0
  distance_traveled: 14881.0
  fault_code: 0
---
header: 
  seq: 100716
  stamp: 
    secs: 1626108269
    nsecs:  97759135
  frame_id: ''
state: 
  voltage_input: 11.5
  temperature_pcb: 0.0
  current_motor: 0.0
  current_input: 0.0
  current_q: 0.0
  speed: -2.0
  duty_cycle: 0.0
  charge_drawn: 178.0
  charge_regen: 0.0
  energy_drawn: 0.0
  energy_regen: 0.0
  displacement: 2187.0
  distance_traveled: 14881.0
  fault_code: 0
---
header: 
  seq: 100717
  stamp: 
    secs: 1626108269
    nsecs: 116840421
  frame_id: ''
state: 
  voltage_input: 11.5
  temperature_pcb: 0.0
  current_motor: 0.0
  current_input: 0.0
  current_q: 0.0
  speed: -2.0
  duty_cycle: 0.0
  charge_drawn: 178.0
  charge_regen: 0.0
  energy_drawn: 0.0
  energy_regen: 0.0
  displacement: 2187.0
  distance_traveled: 14881.0
  fault_code: 0
---
header: 
  seq: 100718
  stamp: 
    secs: 1626108269
    nsecs: 136546086
  frame_id: ''
state: 
  voltage_input: 11.4
  temperature_pcb: 0.0
  current_motor: 0.0
  current_input: 0.0
  current_q: 0.0
  speed: -2.0
  duty_cycle: 0.0
  charge_drawn: 178.0
  charge_regen: 0.0
  energy_drawn: 0.0
  energy_regen: 0.0
  displacement: 2187.0
  distance_traveled: 14881.0
  fault_code: 0
---
header: 
  seq: 100719
  stamp: 
    secs: 1626108269
    nsecs: 156719034
  frame_id: ''
state: 
  voltage_input: 11.5
  temperature_pcb: 0.0
  current_motor: 0.0
  current_input: 0.0
  current_q: 0.0
  speed: -2.0
  duty_cycle: -0.001
  charge_drawn: 178.0
  charge_regen: 0.0
  energy_drawn: 0.0
  energy_regen: 0.0
  displacement: 2187.0
  distance_traveled: 14881.0
  fault_code: 0
---
header: 
  seq: 100720
  stamp: 
    secs: 1626108269
    nsecs: 175868086
  frame_id: ''
state: 
  voltage_input: 11.5
  temperature_pcb: 0.0
  current_motor: 0.0
  current_input: 0.0
  current_q: 0.0
  speed: -2.0
  duty_cycle: 0.0
  charge_drawn: 178.0
  charge_regen: 0.0
  energy_drawn: 0.0
  energy_regen: 0.0
  displacement: 2187.0
  distance_traveled: 14881.0
  fault_code: 0
---
header: 
  seq: 100721
  stamp: 
    secs: 1626108269
    nsecs: 196800948
  frame_id: ''
state: 
  voltage_input: 11.5
  temperature_pcb: 0.0
  current_motor: 0.0
  current_input: 0.0
  current_q: 0.0
  speed: -1.0
  duty_cycle: 0.0
  charge_drawn: 178.0
  charge_regen: 0.0
  energy_drawn: 0.0
  energy_regen: 0.0
  displacement: 2187.0
  distance_traveled: 14881.0
  fault_code: 0
---
header: 
  seq: 100722
  stamp: 
    secs: 1626108269
    nsecs: 217239077
  frame_id: ''
state: 
  voltage_input: 11.5
  temperature_pcb: 0.0
  current_motor: 0.0
  current_input: 0.0
  current_q: 0.0
  speed: -1.0
  duty_cycle: 0.0
  charge_drawn: 178.0
  charge_regen: 0.0
  energy_drawn: 0.0
  energy_regen: 0.0
  displacement: 2187.0
  distance_traveled: 14881.0
  fault_code: 0
---
header: 
  seq: 100723
  stamp: 
    secs: 1626108269
    nsecs: 236573771
  frame_id: ''
state: 
  voltage_input: 11.5
  temperature_pcb: 0.0
  current_motor: 0.0
  current_input: 0.0
  current_q: 0.0
  speed: -1.0
  duty_cycle: 0.0
  charge_drawn: 178.0
  charge_regen: 0.0
  energy_drawn: 0.0
  energy_regen: 0.0
  displacement: 2187.0
  distance_traveled: 14881.0
  fault_code: 0
---
header: 
  seq: 100724
  stamp: 
    secs: 1626108269
    nsecs: 257436574
  frame_id: ''
state: 
  voltage_input: 11.4
  temperature_pcb: 0.0
  current_motor: 9.95
  current_input: 0.7
  current_q: 11.97
  speed: 9.0
  duty_cycle: 0.075
  charge_drawn: 178.0
  charge_regen: 0.0
  energy_drawn: 0.0
  energy_regen: 0.0
  displacement: 2187.0
  distance_traveled: 14881.0
  fault_code: 0
---
header: 
  seq: 100725
  stamp: 
    secs: 1626108269
    nsecs: 276820231
  frame_id: ''
state: 
  voltage_input: 11.5
  temperature_pcb: 0.0
  current_motor: 25.72
  current_input: 1.75
  current_q: 25.14
  speed: 323.0
  duty_cycle: 0.074
  charge_drawn: 178.0
  charge_regen: 0.0
  energy_drawn: 0.0
  energy_regen: 0.0
  displacement: 2189.0
  distance_traveled: 14883.0
  fault_code: 0
---
header: 
  seq: 100726
  stamp: 
    secs: 1626108269
    nsecs: 296760554
  frame_id: ''
state: 
  voltage_input: 11.5
  temperature_pcb: 0.0
  current_motor: 38.37
  current_input: 2.22
  current_q: 38.16
  speed: 499.0
  duty_cycle: 0.061
  charge_drawn: 178.0
  charge_regen: 0.0
  energy_drawn: 0.0
  energy_regen: 0.0
  displacement: 2191.0
  distance_traveled: 14885.0
  fault_code: 0
---
header: 
  seq: 100727
  stamp: 
    secs: 1626108269
    nsecs: 317204621
  frame_id: ''
state: 
  voltage_input: 11.4
  temperature_pcb: 0.0
  current_motor: 44.32
  current_input: 2.65
  current_q: 44.45
  speed: 553.0
  duty_cycle: 0.059
  charge_drawn: 179.0
  charge_regen: 0.0
  energy_drawn: 0.0
  energy_regen: 0.0
  displacement: 2193.0
  distance_traveled: 14887.0
  fault_code: 0
---
header: 
  seq: 100728
  stamp: 
    secs: 1626108269
    nsecs: 337356369
  frame_id: ''
state: 
  voltage_input: 11.5
  temperature_pcb: 0.0
  current_motor: 46.49
  current_input: 2.9
  current_q: 46.89
  speed: 575.0
  duty_cycle: 0.085
  charge_drawn: 179.0
  charge_regen: 0.0
  energy_drawn: 0.0
  energy_regen: 0.0
  displacement: 2194.0
  distance_traveled: 14888.0
  fault_code: 0
---
header: 
  seq: 100729
  stamp: 
    secs: 1626108269
    nsecs: 356870246
  frame_id: ''
state: 
  voltage_input: 11.5
  temperature_pcb: 0.0
  current_motor: 41.44
  current_input: 2.47
  current_q: 40.42
  speed: 693.0
  duty_cycle: 0.049
  charge_drawn: 179.0
  charge_regen: 0.0
  energy_drawn: 0.0
  energy_regen: 0.0
  displacement: 2196.0
  distance_traveled: 14890.0
  fault_code: 0
---
header: 
  seq: 100730
  stamp: 
    secs: 1626108269
    nsecs: 376830883
  frame_id: ''
state: 
  voltage_input: 11.5
  temperature_pcb: 0.0
  current_motor: 38.27
  current_input: 2.26
  current_q: 38.95
  speed: 753.0
  duty_cycle: 0.076
  charge_drawn: 179.0
  charge_regen: 0.0
  energy_drawn: 0.0
  energy_regen: 0.0
  displacement: 2198.0
  distance_traveled: 14892.0
  fault_code: 0
---
header: 
  seq: 100731
  stamp: 
    secs: 1626108269
    nsecs: 396904864
  frame_id: ''
state: 
  voltage_input: 11.5
  temperature_pcb: 0.0
  current_motor: 36.55
  current_input: 2.04
  current_q: 35.78
  speed: 867.0
  duty_cycle: 0.047
  charge_drawn: 179.0
  charge_regen: 0.0
  energy_drawn: 0.0
  energy_regen: 0.0
  displacement: 2200.0
  distance_traveled: 14894.0
  fault_code: 0
---
header: 
  seq: 100732
  stamp: 
    secs: 1626108269
    nsecs: 416823310
  frame_id: ''
state: 
  voltage_input: 11.5
  temperature_pcb: 0.0
  current_motor: 34.57
  current_input: 1.96
  current_q: 34.86
  speed: 940.0
  duty_cycle: 0.068
  charge_drawn: 179.0
  charge_regen: 0.0
  energy_drawn: 0.0
  energy_regen: 0.0
  displacement: 2203.0
  distance_traveled: 14897.0
  fault_code: 0
---
header: 
  seq: 100733
  stamp: 
    secs: 1626108269
    nsecs: 437046367
  frame_id: ''
state: 
  voltage_input: 11.5
  temperature_pcb: 0.0
  current_motor: 31.29
  current_input: 1.67
  current_q: 30.9
  speed: 1044.0
  duty_cycle: 0.055
  charge_drawn: 179.0
  charge_regen: 0.0
  energy_drawn: 0.0
  energy_regen: 0.0
  displacement: 2205.0
  distance_traveled: 14899.0
  fault_code: 0
---
header: 
  seq: 100734
  stamp: 
    secs: 1626108269
    nsecs: 458093718
  frame_id: ''
state: 
  voltage_input: 11.5
  temperature_pcb: 0.0
  current_motor: 28.87
  current_input: 1.53
  current_q: 28.86
  speed: 1142.0
  duty_cycle: 0.064
  charge_drawn: 179.0
  charge_regen: 0.0
  energy_drawn: 0.0
  energy_regen: 0.0
  displacement: 2208.0
  distance_traveled: 14902.0
  fault_code: 0
---
header: 
  seq: 100735
  stamp: 
    secs: 1626108269
    nsecs: 476955244
  frame_id: ''
state: 
  voltage_input: 11.5
  temperature_pcb: 0.0
  current_motor: 26.24
  current_input: 1.33
  current_q: 26.03
  speed: 1229.0
  duty_cycle: 0.057
  charge_drawn: 180.0
  charge_regen: 0.0
  energy_drawn: 0.0
  energy_regen: 0.0
  displacement: 2211.0
  distance_traveled: 14905.0
  fault_code: 0
---
header: 
  seq: 100736
  stamp: 
    secs: 1626108269
    nsecs: 496471882
  frame_id: ''
state: 
  voltage_input: 11.4
  temperature_pcb: 0.0
  current_motor: 25.3
  current_input: 1.3
  current_q: 25.24
  speed: 1314.0
  duty_cycle: 0.064
  charge_drawn: 180.0
  charge_regen: 0.0
  energy_drawn: 0.0
  energy_regen: 0.0
  displacement: 2214.0
  distance_traveled: 14908.0
  fault_code: 0
---
header: 
  seq: 100737
  stamp: 
    secs: 1626108269
    nsecs: 517216341
  frame_id: ''
state: 
  voltage_input: 11.5
  temperature_pcb: 0.0
  current_motor: 21.73
  current_input: 1.06
  current_q: 21.46
  speed: 1418.0
  duty_cycle: 0.049
  charge_drawn: 180.0
  charge_regen: 0.0
  energy_drawn: 0.0
  energy_regen: 0.0
  displacement: 2218.0
  distance_traveled: 14912.0
  fault_code: 0
---
header: 
  seq: 100738
  stamp: 
    secs: 1626108269
    nsecs: 536479726
  frame_id: ''
state: 
  voltage_input: 11.5
  temperature_pcb: 0.0
  current_motor: 20.23
  current_input: 0.99
  current_q: 20.13
  speed: 1499.0
  duty_cycle: 0.057
  charge_drawn: 180.0
  charge_regen: 0.0
  energy_drawn: 0.0
  energy_regen: 0.0
  displacement: 2221.0
  distance_traveled: 14915.0
  fault_code: 0
---
header: 
  seq: 100739
  stamp: 
    secs: 1626108269
    nsecs: 556938482
  frame_id: ''
state: 
  voltage_input: 11.4
  temperature_pcb: 0.0
  current_motor: 18.24
  current_input: 0.87
  current_q: 18.16
  speed: 1588.0
  duty_cycle: 0.053
  charge_drawn: 180.0
  charge_regen: 0.0
  energy_drawn: 0.0
  energy_regen: 0.0
  displacement: 2225.0
  distance_traveled: 14919.0
  fault_code: 0
---
header: 
  seq: 100740
  stamp: 
    secs: 1626108269
    nsecs: 577370673
  frame_id: ''
state: 
  voltage_input: 11.4
  temperature_pcb: 0.0
  current_motor: 17.52
  current_input: 0.85
  current_q: 17.49
  speed: 1663.0
  duty_cycle: 0.057
  charge_drawn: 180.0
  charge_regen: 0.0
  energy_drawn: 0.0
  energy_regen: 0.0
  displacement: 2228.0
  distance_traveled: 14922.0
  fault_code: 0
---
header: 
  seq: 100741
  stamp: 
    secs: 1626108269
    nsecs: 598365832
  frame_id: ''
state: 
  voltage_input: 11.5
  temperature_pcb: 0.0
  current_motor: 15.2
  current_input: 0.7
  current_q: 14.96
  speed: 1748.0
  duty_cycle: 0.051
  charge_drawn: 180.0
  charge_regen: 0.0
  energy_drawn: 0.0
  energy_regen: 0.0
  displacement: 2233.0
  distance_traveled: 14927.0
  fault_code: 0
---
header: 
  seq: 100742
  stamp: 
    secs: 1626108269
    nsecs: 616998534
  frame_id: ''
state: 
  voltage_input: 11.5
  temperature_pcb: 0.0
  current_motor: 13.91
  current_input: 0.64
  current_q: 13.81
  speed: 1812.0
  duty_cycle: 0.054
  charge_drawn: 180.0
  charge_regen: 0.0
  energy_drawn: 0.0
  energy_regen: 0.0
  displacement: 2236.0
  distance_traveled: 14930.0
  fault_code: 0
---
header: 
  seq: 100743
  stamp: 
    secs: 1626108269
    nsecs: 636782228
  frame_id: ''
state: 
  voltage_input: 11.4
  temperature_pcb: 0.0
  current_motor: 13.76
  current_input: 0.64
  current_q: 13.73
  speed: 1868.0
  duty_cycle: 0.057
  charge_drawn: 180.0
  charge_regen: 0.0
  energy_drawn: 0.0
  energy_regen: 0.0
  displacement: 2240.0
  distance_traveled: 14934.0
  fault_code: 0
---
header: 
  seq: 100744
  stamp: 
    secs: 1626108269
    nsecs: 656499249
  frame_id: ''
state: 
  voltage_input: 11.5
  temperature_pcb: 0.0
  current_motor: 12.34
  current_input: 0.56
  current_q: 12.13
  speed: 1934.0
  duty_cycle: 0.051
  charge_drawn: 180.0
  charge_regen: 0.0
  energy_drawn: 0.0
  energy_regen: 0.0
  displacement: 2245.0
  distance_traveled: 14939.0
  fault_code: 0
---
header: 
  seq: 100745
  stamp: 
    secs: 1626108269
    nsecs: 676735432
  frame_id: ''
state: 
  voltage_input: 11.5
  temperature_pcb: 0.0
  current_motor: 10.76
  current_input: 0.47
  current_q: 10.52
  speed: 1989.0
  duty_cycle: 0.048
  charge_drawn: 180.0
  charge_regen: 0.0
  energy_drawn: 0.0
  energy_regen: 0.0
  displacement: 2249.0
  distance_traveled: 14943.0
  fault_code: 0
---
header: 
  seq: 100746
  stamp: 
    secs: 1626108269
    nsecs: 697736529
  frame_id: ''
state: 
  voltage_input: 11.4
  temperature_pcb: 0.0
  current_motor: 11.25
  current_input: 0.52
  current_q: 11.3
  speed: 2037.0
  duty_cycle: 0.056
  charge_drawn: 180.0
  charge_regen: 0.0
  energy_drawn: 0.0
  energy_regen: 0.0
  displacement: 2253.0
  distance_traveled: 14947.0
  fault_code: 0
---
header: 
  seq: 100747
  stamp: 
    secs: 1626108269
    nsecs: 716322300
  frame_id: ''
state: 
  voltage_input: 11.5
  temperature_pcb: 0.0
  current_motor: 10.56
  current_input: 0.47
  current_q: 10.36
  speed: 2077.0
  duty_cycle: 0.046
  charge_drawn: 180.0
  charge_regen: 0.0
  energy_drawn: 0.0
  energy_regen: 0.0
  displacement: 2258.0
  distance_traveled: 14952.0
  fault_code: 0
---
header: 
  seq: 100748
  stamp: 
    secs: 1626108269
    nsecs: 736629532
  frame_id: ''
state: 
  voltage_input: 11.5
  temperature_pcb: 0.0
  current_motor: 11.89
  current_input: 0.57
  current_q: 12.09
  speed: 2083.0
  duty_cycle: 0.059
  charge_drawn: 180.0
  charge_regen: 0.0
  energy_drawn: 0.0
  energy_regen: 0.0
  displacement: 2262.0
  distance_traveled: 14956.0
  fault_code: 0
---
header: 
  seq: 100749
  stamp: 
    secs: 1626108269
    nsecs: 756841337
  frame_id: ''
state: 
  voltage_input: 11.4
  temperature_pcb: 0.0
  current_motor: 11.67
  current_input: 0.53
  current_q: 11.0
  speed: 2144.0
  duty_cycle: 0.031
  charge_drawn: 180.0
  charge_regen: 0.0
  energy_drawn: 0.0
  energy_regen: 0.0
  displacement: 2266.0
  distance_traveled: 14960.0
  fault_code: 0
---
header: 
  seq: 100750
  stamp: 
    secs: 1626108269
    nsecs: 776387874
  frame_id: ''
state: 
  voltage_input: 11.5
  temperature_pcb: 0.0
  current_motor: 10.99
  current_input: 0.64
  current_q: 11.67
  speed: 2108.0
  duty_cycle: 0.067
  charge_drawn: 180.0
  charge_regen: 0.0
  energy_drawn: 0.0
  energy_regen: 0.0
  displacement: 2270.0
  distance_traveled: 14964.0
  fault_code: 0
---
header: 
  seq: 100751
  stamp: 
    secs: 1626108269
    nsecs: 796616817
  frame_id: ''
state: 
  voltage_input: 11.4
  temperature_pcb: 0.0
  current_motor: 15.06
  current_input: 0.85
  current_q: 14.18
  speed: 2168.0
  duty_cycle: 0.032
  charge_drawn: 180.0
  charge_regen: 0.0
  energy_drawn: 0.0
  energy_regen: 0.0
  displacement: 2275.0
  distance_traveled: 14969.0
  fault_code: 0
---
header: 
  seq: 100752
  stamp: 
    secs: 1626108269
    nsecs: 816292792
  frame_id: ''
state: 
  voltage_input: 11.4
  temperature_pcb: 0.0
  current_motor: 10.86
  current_input: 0.7
  current_q: 11.58
  speed: 2130.0
  duty_cycle: 0.073
  charge_drawn: 180.0
  charge_regen: 0.0
  energy_drawn: 0.0
  energy_regen: 0.0
  displacement: 2279.0
  distance_traveled: 14973.0
  fault_code: 0
---
header: 
  seq: 100753
  stamp: 
    secs: 1626108269
    nsecs: 836891405
  frame_id: ''
state: 
  voltage_input: 11.5
  temperature_pcb: 0.0
  current_motor: 10.62
  current_input: 0.56
  current_q: 9.64
  speed: 2185.0
  duty_cycle: 0.022
  charge_drawn: 180.0
  charge_regen: 0.0
  energy_drawn: 0.0
  energy_regen: 0.0
  displacement: 2284.0
  distance_traveled: 14978.0
  fault_code: 0
---
header: 
  seq: 100754
  stamp: 
    secs: 1626108269
    nsecs: 856828237
  frame_id: ''
state: 
  voltage_input: 11.5
  temperature_pcb: 0.0
  current_motor: 12.12
  current_input: 0.7
  current_q: 12.72
  speed: 2165.0
  duty_cycle: 0.068
  charge_drawn: 180.0
  charge_regen: 0.0
  energy_drawn: 0.0
  energy_regen: 0.0
  displacement: 2288.0
  distance_traveled: 14982.0
  fault_code: 0
---
header: 
  seq: 100755
  stamp: 
    secs: 1626108269
    nsecs: 876626932
  frame_id: ''
state: 
  voltage_input: 11.5
  temperature_pcb: 0.0
  current_motor: 9.18
  current_input: 0.45
  current_q: 8.51
  speed: 2211.0
  duty_cycle: 0.027
  charge_drawn: 180.0
  charge_regen: 0.0
  energy_drawn: 0.0
  energy_regen: 0.0
  displacement: 2293.0
  distance_traveled: 14987.0
  fault_code: 0
---
header: 
  seq: 100756
  stamp: 
    secs: 1626108269
    nsecs: 898743184
  frame_id: ''
state: 
  voltage_input: 11.4
  temperature_pcb: 0.0
  current_motor: 11.06
  current_input: 0.62
  current_q: 11.42
  speed: 2212.0
  duty_cycle: 0.058
  charge_drawn: 180.0
  charge_regen: 0.0
  energy_drawn: 0.0
  energy_regen: 0.0
  displacement: 2298.0
  distance_traveled: 14992.0
  fault_code: 0
---
header: 
  seq: 100757
  stamp: 
    secs: 1626108269
    nsecs: 917365521
  frame_id: ''
state: 
  voltage_input: 11.5
  temperature_pcb: 0.0
  current_motor: 7.11
  current_input: 0.36
  current_q: 6.63
  speed: 2232.0
  duty_cycle: 0.035
  charge_drawn: 180.0
  charge_regen: 0.0
  energy_drawn: 0.0
  energy_regen: 0.0
  displacement: 2302.0
  distance_traveled: 14996.0
  fault_code: 0
---
header: 
  seq: 100758
  stamp: 
    secs: 1626108269
    nsecs: 937091814
  frame_id: ''
state: 
  voltage_input: 11.5
  temperature_pcb: 0.0
  current_motor: 10.64
  current_input: 0.58
  current_q: 11.03
  speed: 2237.0
  duty_cycle: 0.065
  charge_drawn: 180.0
  charge_regen: 0.0
  energy_drawn: 0.0
  energy_regen: 0.0
  displacement: 2306.0
  distance_traveled: 15000.0
  fault_code: 0
---
header: 
  seq: 100759
  stamp: 
    secs: 1626108269
    nsecs: 958427160
  frame_id: ''
state: 
  voltage_input: 11.5
  temperature_pcb: 0.0
  current_motor: 6.6
  current_input: 0.33
  current_q: 6.35
  speed: 2262.0
  duty_cycle: 0.052
  charge_drawn: 180.0
  charge_regen: 0.0
  energy_drawn: 0.0
  energy_regen: 0.0
  displacement: 2311.0
  distance_traveled: 15005.0
  fault_code: 0
---
header: 
  seq: 100760
  stamp: 
    secs: 1626108269
    nsecs: 976922506
  frame_id: ''
state: 
  voltage_input: 11.5
  temperature_pcb: 0.0
  current_motor: 10.55
  current_input: 0.59
  current_q: 10.88
  speed: 2272.0
  duty_cycle: 0.059
  charge_drawn: 180.0
  charge_regen: 0.0
  energy_drawn: 0.0
  energy_regen: 0.0
  displacement: 2316.0
  distance_traveled: 15010.0
  fault_code: 0
---
header: 
  seq: 100761
  stamp: 
    secs: 1626108269
    nsecs: 996579574
  frame_id: ''
state: 
  voltage_input: 11.5
  temperature_pcb: 0.0
  current_motor: 6.16
  current_input: 0.33
  current_q: 5.95
  speed: 2278.0
  duty_cycle: 0.062
  charge_drawn: 181.0
  charge_regen: 0.0
  energy_drawn: 0.0
  energy_regen: 0.0
  displacement: 2320.0
  distance_traveled: 15014.0
  fault_code: 0
---
header: 
  seq: 100762
  stamp: 
    secs: 1626108270
    nsecs:  18352297
  frame_id: ''
state: 
  voltage_input: 11.5
  temperature_pcb: 0.0
  current_motor: 8.29
  current_input: 0.43
  current_q: 7.85
  speed: 2324.0
  duty_cycle: 0.023
  charge_drawn: 181.0
  charge_regen: 0.0
  energy_drawn: 0.0
  energy_regen: 0.0
  displacement: 2325.0
  distance_traveled: 15019.0
  fault_code: 0
---
header: 
  seq: 100763
  stamp: 
    secs: 1626108270
    nsecs:  36820288
  frame_id: ''
state: 
  voltage_input: 11.5
  temperature_pcb: 0.0
  current_motor: 7.94
  current_input: 0.45
  current_q: 8.63
  speed: 2307.0
  duty_cycle: 0.062
  charge_drawn: 181.0
  charge_regen: 0.0
  energy_drawn: 0.0
  energy_regen: 0.0
  displacement: 2330.0
  distance_traveled: 15024.0
  fault_code: 0
---
header: 
  seq: 100764
  stamp: 
    secs: 1626108270
    nsecs:  57441132
  frame_id: ''
state: 
  voltage_input: 11.6
  temperature_pcb: 0.0
  current_motor: 7.41
  current_input: 0.34
  current_q: 6.78
  speed: 2331.0
  duty_cycle: 0.033
  charge_drawn: 181.0
  charge_regen: 0.0
  energy_drawn: 0.0
  energy_regen: 0.0
  displacement: 2335.0
  distance_traveled: 15029.0
  fault_code: 0
---
header: 
  seq: 100765
  stamp: 
    secs: 1626108270
    nsecs:  77100534
  frame_id: ''
state: 
  voltage_input: 11.6
  temperature_pcb: 0.0
  current_motor: 10.46
  current_input: 0.59
  current_q: 11.15
  speed: 2296.0
  duty_cycle: 0.065
  charge_drawn: 181.0
  charge_regen: 0.0
  energy_drawn: 0.0
  energy_regen: 0.0
  displacement: 2339.0
  distance_traveled: 15033.0
  fault_code: 0
---
header: 
  seq: 100766
  stamp: 
    secs: 1626108270
    nsecs:  97197216
  frame_id: ''
state: 
  voltage_input: 11.5
  temperature_pcb: 0.0
  current_motor: 9.42
  current_input: 0.45
  current_q: 8.47
  speed: 2334.0
  duty_cycle: 0.023
  charge_drawn: 181.0
  charge_regen: 0.0
  energy_drawn: 0.0
  energy_regen: 0.0
  displacement: 2344.0
  distance_traveled: 15038.0
  fault_code: 0
---
header: 
  seq: 100767
  stamp: 
    secs: 1626108270
    nsecs: 117374686
  frame_id: ''
state: 
  voltage_input: 11.5
  temperature_pcb: 0.0
  current_motor: 9.92
  current_input: 0.56
  current_q: 10.52
  speed: 2289.0
  duty_cycle: 0.068
  charge_drawn: 181.0
  charge_regen: 0.0
  energy_drawn: 0.0
  energy_regen: 0.0
  displacement: 2348.0
  distance_traveled: 15042.0
  fault_code: 0
---
header: 
  seq: 100768
  stamp: 
    secs: 1626108270
    nsecs: 136635771
  frame_id: ''
state: 
  voltage_input: 11.5
  temperature_pcb: 0.0
  current_motor: 8.83
  current_input: 0.45
  current_q: 8.11
  speed: 2318.0
  duty_cycle: 0.028
  charge_drawn: 181.0
  charge_regen: 0.0
  energy_drawn: 0.0
  energy_regen: 0.0
  displacement: 2353.0
  distance_traveled: 15047.0
  fault_code: 0
---
header: 
  seq: 100769
  stamp: 
    secs: 1626108270
    nsecs: 158267541
  frame_id: ''
state: 
  voltage_input: 11.5
  temperature_pcb: 0.0
  current_motor: 10.4
  current_input: 0.59
  current_q: 10.79
  speed: 2317.0
  duty_cycle: 0.051
  charge_drawn: 181.0
  charge_regen: 0.0
  energy_drawn: 0.0
  energy_regen: 0.0
  displacement: 2358.0
  distance_traveled: 15052.0
  fault_code: 0
---
header: 
  seq: 100770
  stamp: 
    secs: 1626108270
    nsecs: 176643284
  frame_id: ''
state: 
  voltage_input: 11.5
  temperature_pcb: 0.0
  current_motor: 6.16
  current_input: 0.32
  current_q: 5.73
  speed: 2318.0
  duty_cycle: 0.039
  charge_drawn: 181.0
  charge_regen: 0.0
  energy_drawn: 0.0
  energy_regen: 0.0
  displacement: 2362.0
  distance_traveled: 15056.0
  fault_code: 0
---
header: 
  seq: 100771
  stamp: 
    secs: 1626108270
    nsecs: 198110351
  frame_id: ''
state: 
  voltage_input: 11.5
  temperature_pcb: 0.0
  current_motor: 9.94
  current_input: 0.53
  current_q: 10.08
  speed: 2338.0
  duty_cycle: 0.044
  charge_drawn: 181.0
  charge_regen: 0.0
  energy_drawn: 0.0
  energy_regen: 0.0
  displacement: 2367.0
  distance_traveled: 15061.0
  fault_code: 0
---
header: 
  seq: 100772
  stamp: 
    secs: 1626108270
    nsecs: 217176470
  frame_id: ''
state: 
  voltage_input: 11.5
  temperature_pcb: 0.0
  current_motor: 5.22
  current_input: 0.27
  current_q: 5.17
  speed: 2333.0
  duty_cycle: 0.051
  charge_drawn: 181.0
  charge_regen: 0.0
  energy_drawn: 0.0
  energy_regen: 0.0
  displacement: 2371.0
  distance_traveled: 15065.0
  fault_code: 0
---
header: 
  seq: 100773
  stamp: 
    secs: 1626108270
    nsecs: 237295653
  frame_id: ''
state: 
  voltage_input: 11.5
  temperature_pcb: 0.0
  current_motor: 8.44
  current_input: 0.43
  current_q: 8.46
  speed: 2355.0
  duty_cycle: 0.058
  charge_drawn: 181.0
  charge_regen: 0.0
  energy_drawn: 0.0
  energy_regen: 0.0
  displacement: 2376.0
  distance_traveled: 15070.0
  fault_code: 0
---
header: 
  seq: 100774
  stamp: 
    secs: 1626108270
    nsecs: 256759829
  frame_id: ''
state: 
  voltage_input: 11.5
  temperature_pcb: 0.0
  current_motor: 5.05
  current_input: 0.26
  current_q: 4.78
  speed: 2362.0
  duty_cycle: 0.04
  charge_drawn: 181.0
  charge_regen: 0.0
  energy_drawn: 0.0
  energy_regen: 0.0
  displacement: 2381.0
  distance_traveled: 15075.0
  fault_code: 0
---
header: 
  seq: 100775
  stamp: 
    secs: 1626108270
    nsecs: 277080542
  frame_id: ''
state: 
  voltage_input: 11.4
  temperature_pcb: 0.0
  current_motor: 8.8
  current_input: 0.48
  current_q: 8.81
  speed: 2395.0
  duty_cycle: 0.033
  charge_drawn: 181.0
  charge_regen: 0.0
  energy_drawn: 0.0
  energy_regen: 0.0
  displacement: 2386.0
  distance_traveled: 15080.0
  fault_code: 0
---
header: 
  seq: 100776
  stamp: 
    secs: 1626108270
    nsecs: 297185714
  frame_id: ''
state: 
  voltage_input: 11.5
  temperature_pcb: 0.0
  current_motor: 6.76
  current_input: 0.45
  current_q: 7.51
  speed: 2358.0
  duty_cycle: 0.063
  charge_drawn: 181.0
  charge_regen: 0.0
  energy_drawn: 0.0
  energy_regen: 0.0
  displacement: 2391.0
  distance_traveled: 15085.0
  fault_code: 0
---
header: 
  seq: 100777
  stamp: 
    secs: 1626108270
    nsecs: 317394645
  frame_id: ''
state: 
  voltage_input: 11.5
  temperature_pcb: 0.0
  current_motor: 6.92
  current_input: 0.33
  current_q: 6.13
  speed: 2383.0
  duty_cycle: 0.03
  charge_drawn: 181.0
  charge_regen: 0.0
  energy_drawn: 0.0
  energy_regen: 0.0
  displacement: 2396.0
  distance_traveled: 15090.0
  fault_code: 0
---
header: 
  seq: 100778
  stamp: 
    secs: 1626108270
    nsecs: 336728445
  frame_id: ''
state: 
  voltage_input: 11.5
  temperature_pcb: 0.0
  current_motor: 9.69
  current_input: 0.55
  current_q: 10.12
  speed: 2352.0
  duty_cycle: 0.066
  charge_drawn: 181.0
  charge_regen: 0.0
  energy_drawn: 0.0
  energy_regen: 0.0
  displacement: 2400.0
  distance_traveled: 15094.0
  fault_code: 0
---
header: 
  seq: 100779
  stamp: 
    secs: 1626108270
    nsecs: 357259958
  frame_id: ''
state: 
  voltage_input: 11.5
  temperature_pcb: 0.0
  current_motor: 6.89
  current_input: 0.38
  current_q: 6.35
  speed: 2356.0
  duty_cycle: 0.042
  charge_drawn: 181.0
  charge_regen: 0.0
  energy_drawn: 0.0
  energy_regen: 0.0
  displacement: 2405.0
  distance_traveled: 15099.0
  fault_code: 0
---
header: 
  seq: 100780
  stamp: 
    secs: 1626108270
    nsecs: 376924985
  frame_id: ''
state: 
  voltage_input: 11.5
  temperature_pcb: 0.0
  current_motor: 11.36
  current_input: 0.64
  current_q: 11.46
  speed: 2369.0
  duty_cycle: 0.048
  charge_drawn: 181.0
  charge_regen: 0.0
  energy_drawn: 0.0
  energy_regen: 0.0
  displacement: 2410.0
  distance_traveled: 15104.0
  fault_code: 0
---
header: 
  seq: 100781
  stamp: 
    secs: 1626108270
    nsecs: 396859725
  frame_id: ''
state: 
  voltage_input: 11.5
  temperature_pcb: 0.0
  current_motor: 6.31
  current_input: 0.37
  current_q: 6.53
  speed: 2335.0
  duty_cycle: 0.065
  charge_drawn: 181.0
  charge_regen: 0.0
  energy_drawn: 0.0
  energy_regen: 0.0
  displacement: 2414.0
  distance_traveled: 15108.0
  fault_code: 0
---
header: 
  seq: 100782
  stamp: 
    secs: 1626108270
    nsecs: 417150435
  frame_id: ''
state: 
  voltage_input: 11.5
  temperature_pcb: 0.0
  current_motor: 9.93
  current_input: 0.5
  current_q: 9.39
  speed: 2369.0
  duty_cycle: 0.039
  charge_drawn: 181.0
  charge_regen: 0.0
  energy_drawn: 0.0
  energy_regen: 0.0
  displacement: 2419.0
  distance_traveled: 15113.0
  fault_code: 0
---
header: 
  seq: 100783
  stamp: 
    secs: 1626108270
    nsecs: 436927348
  frame_id: ''
state: 
  voltage_input: 11.4
  temperature_pcb: 0.0
  current_motor: 7.79
  current_input: 0.46
  current_q: 8.35
  speed: 2326.0
  duty_cycle: 0.067
  charge_drawn: 181.0
  charge_regen: 0.0
  energy_drawn: 0.0
  energy_regen: 0.0
  displacement: 2423.0
  distance_traveled: 15117.0
  fault_code: 0
---
header: 
  seq: 100784
  stamp: 
    secs: 1626108270
    nsecs: 456723846
  frame_id: ''
state: 
  voltage_input: 11.4
  temperature_pcb: 0.0
  current_motor: 10.57
  current_input: 0.54
  current_q: 9.63
  speed: 2364.0
  duty_cycle: 0.022
  charge_drawn: 181.0
  charge_regen: 0.0
  energy_drawn: 0.0
  energy_regen: 0.0
  displacement: 2428.0
  distance_traveled: 15122.0
  fault_code: 0
---
header: 
  seq: 100785
  stamp: 
    secs: 1626108270
    nsecs: 476869334
  frame_id: ''
state: 
  voltage_input: 11.5
  temperature_pcb: 0.0
  current_motor: 8.49
  current_input: 0.51
  current_q: 9.31
  speed: 2318.0
  duty_cycle: 0.065
  charge_drawn: 181.0
  charge_regen: 0.0
  energy_drawn: 0.0
  energy_regen: 0.0
  displacement: 2433.0
  distance_traveled: 15127.0
  fault_code: 0
---
header: 
  seq: 100786
  stamp: 
    secs: 1626108270
    nsecs: 497947720
  frame_id: ''
state: 
  voltage_input: 11.5
  temperature_pcb: 0.0
  current_motor: 7.06
  current_input: 0.36
  current_q: 6.25
  speed: 2331.0
  duty_cycle: 0.043
  charge_drawn: 181.0
  charge_regen: 0.0
  energy_drawn: 0.0
  energy_regen: 0.0
  displacement: 2438.0
  distance_traveled: 15132.0
  fault_code: 0
---
header: 
  seq: 100787
  stamp: 
    secs: 1626108270
    nsecs: 516863408
  frame_id: ''
state: 
  voltage_input: 11.5
  temperature_pcb: 0.0
  current_motor: 10.67
  current_input: 0.6
  current_q: 10.76
  speed: 2338.0
  duty_cycle: 0.057
  charge_drawn: 181.0
  charge_regen: 0.0
  energy_drawn: 0.0
  energy_regen: 0.0
  displacement: 2442.0
  distance_traveled: 15136.0
  fault_code: 0
---
header: 
  seq: 100788
  stamp: 
    secs: 1626108270
    nsecs: 537055411
  frame_id: ''
state: 
  voltage_input: 11.5
  temperature_pcb: 0.0
  current_motor: 5.66
  current_input: 0.3
  current_q: 5.52
  speed: 2342.0
  duty_cycle: 0.051
  charge_drawn: 181.0
  charge_regen: 0.0
  energy_drawn: 0.0
  energy_regen: 0.0
  displacement: 2447.0
  distance_traveled: 15141.0
  fault_code: 0
---
header: 
  seq: 100789
  stamp: 
    secs: 1626108270
    nsecs: 556010322
  frame_id: ''
state: 
  voltage_input: 11.5
  temperature_pcb: 0.0
  current_motor: 9.9
  current_input: 0.54
  current_q: 9.99
  speed: 2365.0
  duty_cycle: 0.05
  charge_drawn: 181.0
  charge_regen: 0.0
  energy_drawn: 0.0
  energy_regen: 0.0
  displacement: 2452.0
  distance_traveled: 15146.0
  fault_code: 0
---
header: 
  seq: 100790
  stamp: 
    secs: 1626108270
    nsecs: 576758261
  frame_id: ''
state: 
  voltage_input: 11.5
  temperature_pcb: 0.0
  current_motor: 6.21
  current_input: 0.38
  current_q: 6.46
  speed: 2345.0
  duty_cycle: 0.065
  charge_drawn: 181.0
  charge_regen: 0.0
  energy_drawn: 0.0
  energy_regen: 0.0
  displacement: 2456.0
  distance_traveled: 15150.0
  fault_code: 0
---
header: 
  seq: 100791
  stamp: 
    secs: 1626108270
    nsecs: 597031417
  frame_id: ''
state: 
  voltage_input: 11.4
  temperature_pcb: 0.0
  current_motor: 7.61
  current_input: 0.36
  current_q: 6.81
  speed: 2385.0
  duty_cycle: 0.031
  charge_drawn: 181.0
  charge_regen: 0.0
  energy_drawn: 0.0
  energy_regen: 0.0
  displacement: 2461.0
  distance_traveled: 15155.0
  fault_code: 0
---
header: 
  seq: 100792
  stamp: 
    secs: 1626108270
    nsecs: 616552369
  frame_id: ''
state: 
  voltage_input: 11.5
  temperature_pcb: 0.0
  current_motor: 8.79
  current_input: 0.52
  current_q: 9.54
  speed: 2343.0
  duty_cycle: 0.066
  charge_drawn: 181.0
  charge_regen: 0.0
  energy_drawn: 0.0
  energy_regen: 0.0
  displacement: 2466.0
  distance_traveled: 15160.0
  fault_code: 0
---
header: 
  seq: 100793
  stamp: 
    secs: 1626108270
    nsecs: 636898917
  frame_id: ''
state: 
  voltage_input: 11.5
  temperature_pcb: 0.0
  current_motor: 7.79
  current_input: 0.4
  current_q: 6.91
  speed: 2351.0
  duty_cycle: 0.041
  charge_drawn: 181.0
  charge_regen: 0.0
  energy_drawn: 0.0
  energy_regen: 0.0
  displacement: 2471.0
  distance_traveled: 15165.0
  fault_code: 0
---
header: 
  seq: 100794
  stamp: 
    secs: 1626108270
    nsecs: 656994974
  frame_id: ''
state: 
  voltage_input: 11.5
  temperature_pcb: 0.0
  current_motor: 10.8
  current_input: 0.59
  current_q: 10.95
  speed: 2352.0
  duty_cycle: 0.06
  charge_drawn: 181.0
  charge_regen: 0.0
  energy_drawn: 0.0
  energy_regen: 0.0
  displacement: 2475.0
  distance_traveled: 15169.0
  fault_code: 0
---
header: 
  seq: 100795
  stamp: 
    secs: 1626108270
    nsecs: 676776210
  frame_id: ''
state: 
  voltage_input: 11.5
  temperature_pcb: 0.0
  current_motor: 6.46
  current_input: 0.34
  current_q: 6.24
  speed: 2346.0
  duty_cycle: 0.044
  charge_drawn: 181.0
  charge_regen: 0.0
  energy_drawn: 0.0
  energy_regen: 0.0
  displacement: 2480.0
  distance_traveled: 15174.0
  fault_code: 0
---
header: 
  seq: 100796
  stamp: 
    secs: 1626108270
    nsecs: 696906124
  frame_id: ''
state: 
  voltage_input: 11.5
  temperature_pcb: 0.0
  current_motor: 10.96
  current_input: 0.61
  current_q: 11.04
  speed: 2363.0
  duty_cycle: 0.045
  charge_drawn: 181.0
  charge_regen: 0.0
  energy_drawn: 0.0
  energy_regen: 0.0
  displacement: 2485.0
  distance_traveled: 15179.0
  fault_code: 0
---
header: 
  seq: 100797
  stamp: 
    secs: 1626108270
    nsecs: 716665014
  frame_id: ''
state: 
  voltage_input: 11.4
  temperature_pcb: 0.0
  current_motor: 6.75
  current_input: 0.4
  current_q: 7.05
  speed: 2335.0
  duty_cycle: 0.066
  charge_drawn: 181.0
  charge_regen: 0.0
  energy_drawn: 0.0
  energy_regen: 0.0
  displacement: 2489.0
  distance_traveled: 15183.0
  fault_code: 0
---
header: 
  seq: 100798
  stamp: 
    secs: 1626108270
    nsecs: 736705284
  frame_id: ''
state: 
  voltage_input: 11.4
  temperature_pcb: 0.0
  current_motor: 8.69
  current_input: 0.44
  current_q: 7.79
  speed: 2381.0
  duty_cycle: 0.019
  charge_drawn: 181.0
  charge_regen: 0.0
  energy_drawn: 0.0
  energy_regen: 0.0
  displacement: 2494.0
  distance_traveled: 15188.0
  fault_code: 0
---
header: 
  seq: 100799
  stamp: 
    secs: 1626108270
    nsecs: 756754670
  frame_id: ''
state: 
  voltage_input: 11.5
  temperature_pcb: 0.0
  current_motor: 7.99
  current_input: 0.47
  current_q: 8.75
  speed: 2349.0
  duty_cycle: 0.062
  charge_drawn: 181.0
  charge_regen: 0.0
  energy_drawn: 0.0
  energy_regen: 0.0
  displacement: 2499.0
  distance_traveled: 15193.0
  fault_code: 0
---
header: 
  seq: 100800
  stamp: 
    secs: 1626108270
    nsecs: 776785096
  frame_id: ''
state: 
  voltage_input: 11.5
  temperature_pcb: 0.0
  current_motor: 7.27
  current_input: 0.35
  current_q: 6.46
  speed: 2389.0
  duty_cycle: 0.023
  charge_drawn: 182.0
  charge_regen: 0.0
  energy_drawn: 0.0
  energy_regen: 0.0
  displacement: 2504.0
  distance_traveled: 15198.0
  fault_code: 0
---
header: 
  seq: 100801
  stamp: 
    secs: 1626108270
    nsecs: 796655403
  frame_id: ''
state: 
  voltage_input: 11.4
  temperature_pcb: 0.0
  current_motor: 9.14
  current_input: 0.55
  current_q: 9.64
  speed: 2371.0
  duty_cycle: 0.065
  charge_drawn: 182.0
  charge_regen: 0.0
  energy_drawn: 0.0
  energy_regen: 0.0
  displacement: 2508.0
  distance_traveled: 15202.0
  fault_code: 0
---
header: 
  seq: 100802
  stamp: 
    secs: 1626108270
    nsecs: 816747813
  frame_id: ''
state: 
  voltage_input: 11.5
  temperature_pcb: 0.0
  current_motor: 5.98
  current_input: 0.36
  current_q: 6.09
  speed: 2360.0
  duty_cycle: 0.065
  charge_drawn: 182.0
  charge_regen: 0.0
  energy_drawn: 0.0
  energy_regen: 0.0
  displacement: 2513.0
  distance_traveled: 15207.0
  fault_code: 0
---
header: 
  seq: 100803
  stamp: 
    secs: 1626108270
    nsecs: 836451490
  frame_id: ''
state: 
  voltage_input: 11.6
  temperature_pcb: 0.0
  current_motor: 9.6
  current_input: 0.49
  current_q: 8.91
  speed: 2401.0
  duty_cycle: 0.031
  charge_drawn: 182.0
  charge_regen: 0.0
  energy_drawn: 0.0
  energy_regen: 0.0
  displacement: 2518.0
  distance_traveled: 15212.0
  fault_code: 0
---
header: 
  seq: 100804
  stamp: 
    secs: 1626108270
    nsecs: 856624429
  frame_id: ''
state: 
  voltage_input: 11.5
  temperature_pcb: 0.0
  current_motor: 6.66
  current_input: 0.4
  current_q: 7.33
  speed: 2364.0
  duty_cycle: 0.064
  charge_drawn: 182.0
  charge_regen: 0.0
  energy_drawn: 0.0
  energy_regen: 0.0
  displacement: 2523.0
  distance_traveled: 15217.0
  fault_code: 0
---
header: 
  seq: 100805
  stamp: 
    secs: 1626108270
    nsecs: 877430081
  frame_id: ''
state: 
  voltage_input: 11.6
  temperature_pcb: 0.0
  current_motor: 7.73
  current_input: 0.39
  current_q: 6.89
  speed: 2379.0
  duty_cycle: 0.032
  charge_drawn: 182.0
  charge_regen: 0.0
  energy_drawn: 0.0
  energy_regen: 0.0
  displacement: 2527.0
  distance_traveled: 15221.0
  fault_code: 0
---
header: 
  seq: 100806
  stamp: 
    secs: 1626108270
    nsecs: 897011351
  frame_id: ''
state: 
  voltage_input: 11.4
  temperature_pcb: 0.0
  current_motor: 10.4
  current_input: 0.58
  current_q: 10.75
  speed: 2361.0
  duty_cycle: 0.063
  charge_drawn: 182.0
  charge_regen: 0.0
  energy_drawn: 0.0
  energy_regen: 0.0
  displacement: 2532.0
  distance_traveled: 15226.0
  fault_code: 0
---
header: 
  seq: 100807
  stamp: 
    secs: 1626108270
    nsecs: 917165434
  frame_id: ''
state: 
  voltage_input: 11.5
  temperature_pcb: 0.0
  current_motor: 6.99
  current_input: 0.37
  current_q: 6.56
  speed: 2371.0
  duty_cycle: 0.035
  charge_drawn: 182.0
  charge_regen: 0.0
  energy_drawn: 0.0
  energy_regen: 0.0
  displacement: 2537.0
  distance_traveled: 15231.0
  fault_code: 0
---
header: 
  seq: 100808
  stamp: 
    secs: 1626108270
    nsecs: 936957921
  frame_id: ''
state: 
  voltage_input: 11.5
  temperature_pcb: 0.0
  current_motor: 11.4
  current_input: 0.67
  current_q: 11.89
  speed: 2367.0
  duty_cycle: 0.056
  charge_drawn: 182.0
  charge_regen: 0.0
  energy_drawn: 0.0
  energy_regen: 0.0
  displacement: 2542.0
  distance_traveled: 15236.0
  fault_code: 0
---
header: 
  seq: 100809
  stamp: 
    secs: 1626108270
    nsecs: 956770410
  frame_id: ''
state: 
  voltage_input: 11.5
  temperature_pcb: 0.0
  current_motor: 7.27
  current_input: 0.41
  current_q: 7.33
  speed: 2334.0
  duty_cycle: 0.063
  charge_drawn: 182.0
  charge_regen: 0.0
  energy_drawn: 0.0
  energy_regen: 0.0
  displacement: 2546.0
  distance_traveled: 15240.0
  fault_code: 0
---
header: 
  seq: 100810
  stamp: 
    secs: 1626108270
    nsecs: 977552936
  frame_id: ''
state: 
  voltage_input: 11.4
  temperature_pcb: 0.0
  current_motor: 11.3
  current_input: 0.63
  current_q: 10.59
  speed: 2372.0
  duty_cycle: 0.02
  charge_drawn: 182.0
  charge_regen: 0.0
  energy_drawn: 0.0
  energy_regen: 0.0
  displacement: 2551.0
  distance_traveled: 15245.0
  fault_code: 0
---
